[
  {
    "name": "鄉親寮門市",
    "address": "南投縣中寮鄉永安街79之1號1樓",
    "tel": "049-2694524",
    "lat": 23.879273,
    "lng": 120.767179
  },
  {
    "name": "富嘉門市",
    "address": "南投縣仁愛鄉仁和路223-1號",
    "tel": "049-2802133",
    "lat": 24.066828,
    "lng": 121.167006
  },
  {
    "name": "霧社門市",
    "address": "南投縣仁愛鄉仁和路43號45號1樓",
    "tel": "049-2802309",
    "lat": 24.022082,
    "lng": 121.131758
  },
  {
    "name": "見晴園門市",
    "address": "南投縣仁愛鄉大同村定遠新村路18-1號",
    "tel": "049-2803691",
    "lat": 24.019145,
    "lng": 121.131058
  },
  {
    "name": "清境門市",
    "address": "南投縣仁愛鄉定遠新村26之1號",
    "tel": "049-2802718",
    "lat": 24.045105,
    "lng": 121.158614
  },
  {
    "name": "小瑞士門市",
    "address": "南投縣仁愛鄉定遠新村28號",
    "tel": "049-2803447",
    "lat": 24.04397,
    "lng": 121.156369
  },
  {
    "name": "和社門市",
    "address": "南投縣信義鄉同和巷8號1樓",
    "tel": "049-2702941",
    "lat": 23.593423,
    "lng": 120.888416
  },
  {
    "name": "信義鄉門市",
    "address": "南投縣信義鄉明德村玉山路82-2號",
    "tel": "049-2791077",
    "lat": 23.702173,
    "lng": 120.853498
  },
  {
    "name": "龍辰門市",
    "address": "南投縣南投市中學西路61號",
    "tel": "049-2339252",
    "lat": 23.946197,
    "lng": 120.691514
  },
  {
    "name": "莘鑫門市",
    "address": "南投縣南投市中興路221號",
    "tel": "049-2316153",
    "lat": 23.933489,
    "lng": 120.694226
  },
  {
    "name": "芳美門市",
    "address": "南投縣南投市中興路413號",
    "tel": "049-2243868",
    "lat": 23.910511,
    "lng": 120.693813
  },
  {
    "name": "詠嘉門市",
    "address": "南投縣南投市中興路756號",
    "tel": "049-2241896",
    "lat": 23.900509,
    "lng": 120.686693
  },
  {
    "name": "中營門市",
    "address": "南投縣南投市中華路130號",
    "tel": "049-2370508",
    "lat": 23.943663,
    "lng": 120.675721
  },
  {
    "name": "欣鑫門市",
    "address": "南投縣南投市仁和路26號",
    "tel": "049-2256948",
    "lat": 23.922899,
    "lng": 120.668535
  },
  {
    "name": "興中門市",
    "address": "南投縣南投市光明一路561號",
    "tel": "049-2392514",
    "lat": 23.929455,
    "lng": 120.698274
  },
  {
    "name": "猴探井門市",
    "address": "南投縣南投市八德路600之1號",
    "tel": "049-2292842",
    "lat": 23.913447,
    "lng": 120.637546
  },
  {
    "name": "唯鑫門市",
    "address": "南投縣南投市南崗三路8號2樓",
    "tel": "049-2257141",
    "lat": 23.923376,
    "lng": 120.672265
  },
  {
    "name": "長崗門市",
    "address": "南投縣南投市南崗二路581號",
    "tel": "049-2264270",
    "lat": 23.920337,
    "lng": 120.673903
  },
  {
    "name": "常春藤門市",
    "address": "南投縣南投市工業路33號",
    "tel": "049-2264496",
    "lat": 23.925231,
    "lng": 120.661514
  },
  {
    "name": "詠旭門市",
    "address": "南投縣南投市彰南路一段1031-2號1樓",
    "tel": "049-2207249",
    "lat": 23.904852,
    "lng": 120.685252
  },
  {
    "name": "豐億門市",
    "address": "南投縣南投市彰南路一段573號1樓",
    "tel": "049-2203756",
    "lat": 23.904852,
    "lng": 120.685252
  },
  {
    "name": "湧豐門市",
    "address": "南投縣南投市彰南路三路613號、615號",
    "tel": "049-2259601",
    "lat": 23.895099,
    "lng": 120.687597
  },
  {
    "name": "康壽門市",
    "address": "南投縣南投市復興路311號1樓",
    "tel": "049-2247098",
    "lat": 23.910086,
    "lng": 120.685923
  },
  {
    "name": "宏旺門市",
    "address": "南投縣南投市復興路38號",
    "tel": "049-2245147",
    "lat": 23.902849,
    "lng": 120.688376
  },
  {
    "name": "龍巳門市",
    "address": "南投縣南投市東山路408號",
    "tel": "049-2244777",
    "lat": 23.916477,
    "lng": 120.698224
  },
  {
    "name": "南投門市",
    "address": "南投縣南投市民族路289、291、293號中山街143號1.2樓",
    "tel": "049-2242363",
    "lat": 23.905272,
    "lng": 120.676506
  },
  {
    "name": "南崗門市",
    "address": "南投縣南投市民族路515號及南崗一路387號",
    "tel": "049-2228189",
    "lat": 23.906362,
    "lng": 120.679636
  },
  {
    "name": "豐詳門市",
    "address": "南投縣南投市民族路66、68號1樓",
    "tel": "049-2223881",
    "lat": 23.906343,
    "lng": 120.674922
  },
  {
    "name": "合立門市",
    "address": "南投縣南投市營北里向陽路101號",
    "tel": "049-2393853",
    "lat": 23.953082,
    "lng": 120.682332
  },
  {
    "name": "祖祠門市",
    "address": "南投縣南投市祖祠路16-4號",
    "tel": "049-2244378",
    "lat": 23.916989,
    "lng": 120.683421
  },
  {
    "name": "合心門市",
    "address": "南投縣名間鄉中山村彰南路218-32號",
    "tel": "049-2734153",
    "lat": 23.845313,
    "lng": 120.698429
  },
  {
    "name": "雅集門市",
    "address": "南投縣名間鄉員集路137號",
    "tel": "049-2734440",
    "lat": 23.835442,
    "lng": 120.702299
  },
  {
    "name": "大庄門市",
    "address": "南投縣名間鄉大庄村南田路142之12號",
    "tel": "049-2273669",
    "lat": 23.874053,
    "lng": 120.652981
  },
  {
    "name": "茶鄉門市",
    "address": "南投縣名間鄉彰南路335之8號",
    "tel": "049-2738271",
    "lat": 23.864446,
    "lng": 120.693134
  },
  {
    "name": "穀昌門市",
    "address": "南投縣名間鄉彰南路450號",
    "tel": "049-2244085",
    "lat": 23.879235,
    "lng": 120.693404
  },
  {
    "name": "名間門市",
    "address": "南投縣名間鄉彰南路71之5號",
    "tel": "049-2738412",
    "lat": 23.839946,
    "lng": 120.701147
  },
  {
    "name": "新國姓門市",
    "address": "南投縣國姓鄉國姓村中興路301號",
    "tel": "049-2724347",
    "lat": 24.038786,
    "lng": 120.854643
  },
  {
    "name": "鑫臺一門市",
    "address": "南投縣埔里鎮中山路一段176號",
    "tel": "049-2981331",
    "lat": 23.97847,
    "lng": 121.006958
  },
  {
    "name": "中心園門市",
    "address": "南投縣埔里鎮中山路一段427號1樓",
    "tel": "049-2986922",
    "lat": 23.974139,
    "lng": 120.980271
  },
  {
    "name": "埔慶門市",
    "address": "南投縣埔里鎮中山路三段168、170號1樓",
    "tel": "049-2997682",
    "lat": 23.968636,
    "lng": 120.946977
  },
  {
    "name": "埔灃門市",
    "address": "南投縣埔里鎮中山路二段108號中華路184之2號",
    "tel": "049-2903876",
    "lat": 23.969753,
    "lng": 120.973247
  },
  {
    "name": "鑫驛門市",
    "address": "南投縣埔里鎮中山路四段106號",
    "tel": "049-2910641",
    "lat": 23.967141,
    "lng": 120.933023
  },
  {
    "name": "鑫潭門市",
    "address": "南投縣埔里鎮中山路四段97之1.97之2號",
    "tel": "049-2910310",
    "lat": 23.96657,
    "lng": 120.932995
  },
  {
    "name": "中翔門市",
    "address": "南投縣埔里鎮中正路704號",
    "tel": "049-2997107",
    "lat": 23.973825,
    "lng": 120.962954
  },
  {
    "name": "埔佑門市",
    "address": "南投縣埔里鎮中華路116號1樓",
    "tel": "049-2906748",
    "lat": 23.965893,
    "lng": 120.97429
  },
  {
    "name": "宏得門市",
    "address": "南投縣埔里鎮仁愛路450之2號1樓",
    "tel": "049-2420729",
    "lat": 23.971337,
    "lng": 120.967419
  },
  {
    "name": "恆吉門市",
    "address": "南投縣埔里鎮南興街172號",
    "tel": "049-2984207",
    "lat": 23.962237,
    "lng": 120.966143
  },
  {
    "name": "世翊門市",
    "address": "南投縣埔里鎮和平東路223號",
    "tel": "049-2984360",
    "lat": 23.965305,
    "lng": 120.97768
  },
  {
    "name": "埔惠門市",
    "address": "南投縣埔里鎮大城里中山路三段546號1樓",
    "tel": "049-2916066",
    "lat": 23.970689,
    "lng": 120.950924
  },
  {
    "name": "育溪門市",
    "address": "南投縣埔里鎮安七街89-1號",
    "tel": "049-2910592",
    "lat": 23.966771,
    "lng": 120.95381
  },
  {
    "name": "東東門市",
    "address": "南投縣埔里鎮忠孝路138-140號",
    "tel": "049-2421161",
    "lat": 23.962696,
    "lng": 120.970169
  },
  {
    "name": "豐登門市",
    "address": "南投縣埔里鎮枇杷里中正路183-23號",
    "tel": "049-2995855",
    "lat": 23.956455,
    "lng": 120.974039
  },
  {
    "name": "勝財興門市",
    "address": "南投縣埔里鎮榮光路1-11號",
    "tel": "049-2996495",
    "lat": 23.978722,
    "lng": 120.994254
  },
  {
    "name": "龍揚門市",
    "address": "南投縣埔里鎮樹人路221之2號",
    "tel": "049-2989339",
    "lat": 23.96001,
    "lng": 120.973177
  },
  {
    "name": "埔里恩泉門市",
    "address": "南投縣埔里鎮育英街1號",
    "tel": "049-2421300",
    "lat": 23.963018,
    "lng": 120.963258
  },
  {
    "name": "中銘門市",
    "address": "南投縣埔里鎮西安路一段104號",
    "tel": "049-2997200",
    "lat": 23.966504,
    "lng": 120.96711
  },
  {
    "name": "埔安門市",
    "address": "南投縣埔里鎮西安路一段409-1號",
    "tel": "049-2998488",
    "lat": 23.975293,
    "lng": 120.969658
  },
  {
    "name": "佳耘門市",
    "address": "南投縣埔里鎮西安路二段132號",
    "tel": "049-2932129",
    "lat": 23.990651,
    "lng": 120.974936
  },
  {
    "name": "愛蘭門市",
    "address": "南投縣埔里鎮鐵山路36號1樓",
    "tel": "049-2914901",
    "lat": 23.973029,
    "lng": 120.945387
  },
  {
    "name": "水里門市",
    "address": "南投縣水里鄉中山路一段63號",
    "tel": "049-2777616",
    "lat": 23.807327,
    "lng": 120.857091
  },
  {
    "name": "瑞峰門市",
    "address": "南投縣水里鄉北埔村中山路一段540號",
    "tel": "049-2777035",
    "lat": 23.811689,
    "lng": 120.850728
  },
  {
    "name": "龍寶門市",
    "address": "南投縣水里鄉民權路170號",
    "tel": "049-2778956",
    "lat": 23.818131,
    "lng": 120.853713
  },
  {
    "name": "六合門市",
    "address": "南投縣水里鄉民生路175號1樓",
    "tel": "049-2775480",
    "lat": 23.810808,
    "lng": 120.855597
  },
  {
    "name": "水信門市",
    "address": "南投縣水里鄉水信路二段149號",
    "tel": "049-2821920",
    "lat": 23.744285,
    "lng": 120.858738
  },
  {
    "name": "新車埕門市",
    "address": "南投縣水里鄉車埕村民權巷110之1號",
    "tel": "049-2772732",
    "lat": 23.833379,
    "lng": 120.86601
  },
  {
    "name": "竹山大智門市",
    "address": "南投縣竹山鎮中山里自強路176號",
    "tel": "049-2659214",
    "lat": 23.750648,
    "lng": 120.679473
  },
  {
    "name": "寶棧門市",
    "address": "南投縣竹山鎮保甲路10號",
    "tel": "049-2658241",
    "lat": 23.774719,
    "lng": 120.710845
  },
  {
    "name": "青美門市",
    "address": "南投縣竹山鎮大明路540號",
    "tel": "049-2652464",
    "lat": 23.757906,
    "lng": 120.679508
  },
  {
    "name": "和育門市",
    "address": "南投縣竹山鎮大智路57號",
    "tel": "049-2648909",
    "lat": 23.758503,
    "lng": 120.693737
  },
  {
    "name": "竹寶門市",
    "address": "南投縣竹山鎮延正里延正路45之30號1樓",
    "tel": "049-2659184",
    "lat": 23.771232,
    "lng": 120.700457
  },
  {
    "name": "鹿山門市",
    "address": "南投縣竹山鎮延祥里集山路三段73號、73-1號",
    "tel": "049-2651428",
    "lat": 23.765602,
    "lng": 120.705296
  },
  {
    "name": "社寮門市",
    "address": "南投縣竹山鎮集山路一段2051號",
    "tel": "049-2624730",
    "lat": 23.804551,
    "lng": 120.715661
  },
  {
    "name": "前山門市",
    "address": "南投縣竹山鎮集山路三段1089號",
    "tel": "049-2651842",
    "lat": 23.753907,
    "lng": 120.679525
  },
  {
    "name": "鈺興門市",
    "address": "南投縣竹山鎮集山路三段912.914號",
    "tel": "049-2653934",
    "lat": 23.759277,
    "lng": 120.661122
  },
  {
    "name": "竹秀門市",
    "address": "南投縣竹山鎮集山路二段58號",
    "tel": "049-2625248",
    "lat": 23.80017,
    "lng": 120.71342
  },
  {
    "name": "御新門市",
    "address": "南投縣草屯鎮中正路1397-6號",
    "tel": "049-2562282",
    "lat": 23.996891,
    "lng": 120.689553
  },
  {
    "name": "草鞋鐓門市",
    "address": "南投縣草屯鎮中正路344之30號",
    "tel": "049-2561628",
    "lat": 23.978638,
    "lng": 120.718929
  },
  {
    "name": "京鑫門市",
    "address": "南投縣草屯鎮中正路483號",
    "tel": "049-2565173",
    "lat": 23.978992,
    "lng": 120.702907
  },
  {
    "name": "太晟門市",
    "address": "南投縣草屯鎮中正路557之26號",
    "tel": "049-2564932",
    "lat": 23.978777,
    "lng": 120.696471
  },
  {
    "name": "國泰門市",
    "address": "南投縣草屯鎮中正路636號1樓及和興街93號1樓",
    "tel": "049-2336243",
    "lat": 23.979158,
    "lng": 120.684939
  },
  {
    "name": "福元門市",
    "address": "南投縣草屯鎮中正路885號1樓",
    "tel": "049-2318808",
    "lat": 23.984394,
    "lng": 120.686006
  },
  {
    "name": "敦和門市",
    "address": "南投縣草屯鎮仁愛街197號199號1樓",
    "tel": "049-2314596",
    "lat": 23.983162,
    "lng": 120.677969
  },
  {
    "name": "京埔門市",
    "address": "南投縣草屯鎮南埔里中正路254-10號",
    "tel": "049-2560546",
    "lat": 23.979745,
    "lng": 120.72238
  },
  {
    "name": "佑民門市",
    "address": "南投縣草屯鎮太平路一段221號",
    "tel": "049-2316868",
    "lat": 23.960805,
    "lng": 120.681333
  },
  {
    "name": "富聚門市",
    "address": "南投縣草屯鎮富寮里富中路373號",
    "tel": "049-2569642",
    "lat": 23.974765,
    "lng": 120.701269
  },
  {
    "name": "鑫永安門市",
    "address": "南投縣草屯鎮御史里登輝路558號",
    "tel": "049-2566397",
    "lat": 23.988367,
    "lng": 120.701179
  },
  {
    "name": "龍星門市",
    "address": "南投縣草屯鎮復興里碧山路731之5號",
    "tel": "049-2328774",
    "lat": 23.976237,
    "lng": 120.668895
  },
  {
    "name": "登瀛門市",
    "address": "南投縣草屯鎮新庄里博愛路1012號",
    "tel": "049-2301131",
    "lat": 23.991225,
    "lng": 120.668415
  },
  {
    "name": "稻豐門市",
    "address": "南投縣草屯鎮新豐路351號",
    "tel": "049-2305977",
    "lat": 23.994294,
    "lng": 120.679004
  },
  {
    "name": "鴻寶門市",
    "address": "南投縣草屯鎮民權西路221號",
    "tel": "049-2312260",
    "lat": 23.963269,
    "lng": 120.676528
  },
  {
    "name": "合廣門市",
    "address": "南投縣草屯鎮碧山路307.309號",
    "tel": "049-2303250",
    "lat": 23.970538,
    "lng": 120.649501
  },
  {
    "name": "龍泰門市",
    "address": "南投縣草屯鎮碧興路一段798-1號",
    "tel": "049-2362572",
    "lat": 23.972042,
    "lng": 120.652738
  },
  {
    "name": "向日葵門市",
    "address": "南投縣草屯鎮芬草路三段219-1號",
    "tel": "049-2354118",
    "lat": 24.000658,
    "lng": 120.657487
  },
  {
    "name": "墩煌門市",
    "address": "南投縣草屯鎮芬草路三段36號",
    "tel": "049-2305065",
    "lat": 23.998474,
    "lng": 120.661587
  },
  {
    "name": "芳欣門市",
    "address": "南投縣草屯鎮芬草路二段311號",
    "tel": "049-2300264",
    "lat": 23.992108,
    "lng": 120.671083
  },
  {
    "name": "福新門市",
    "address": "南投縣草屯鎮虎山路495號497號",
    "tel": "049-2391643",
    "lat": 23.968781,
    "lng": 120.686981
  },
  {
    "name": "集寶門市",
    "address": "南投縣集集鎮八張街75號",
    "tel": "049-2764780",
    "lat": 23.828042,
    "lng": 120.792421
  },
  {
    "name": "集利門市",
    "address": "南投縣集集鎮吳厝里民生路65-1號",
    "tel": "049-2764506",
    "lat": 23.828384,
    "lng": 120.784837
  },
  {
    "name": "水社棧門市",
    "address": "南投縣魚池鄉中山路163號2樓",
    "tel": "049-2856458",
    "lat": 23.866434,
    "lng": 120.911214
  },
  {
    "name": "水社門市",
    "address": "南投縣魚池鄉中興路32之3號1樓",
    "tel": "049-2856673",
    "lat": 23.865812,
    "lng": 120.911599
  },
  {
    "name": "邵月門市",
    "address": "南投縣魚池鄉新城村通文巷6之28號",
    "tel": "049-2898560",
    "lat": 23.905386,
    "lng": 120.927387
  },
  {
    "name": "伊達邵門市",
    "address": "南投縣魚池鄉日月村義勇街89號",
    "tel": "049-2850593",
    "lat": 23.848428,
    "lng": 120.930629
  },
  {
    "name": "日月潭門市",
    "address": "南投縣魚池鄉水社村中山路118號",
    "tel": "049-2856426",
    "lat": 23.866111,
    "lng": 120.912233
  },
  {
    "name": "佳軒門市",
    "address": "南投縣魚池鄉魚池街350號",
    "tel": "049-2899468",
    "lat": 23.89683,
    "lng": 120.937389
  },
  {
    "name": "鑫魚池門市",
    "address": "南投縣魚池鄉魚池街799號",
    "tel": "049-2899633",
    "lat": 23.900953,
    "lng": 120.930831
  },
  {
    "name": "鳳凰谷門市",
    "address": "南投縣鹿谷鄉中正路三段63號",
    "tel": "049-2750993",
    "lat": 23.759149,
    "lng": 120.738187
  },
  {
    "name": "新鹿谷門市",
    "address": "南投縣鹿谷鄉仁義路148號",
    "tel": "049-2754897",
    "lat": 23.746091,
    "lng": 120.75243
  },
  {
    "name": "和雅門市",
    "address": "南投縣鹿谷鄉廣興村中正一路225號",
    "tel": "049-2755979",
    "lat": 23.73703,
    "lng": 120.759961
  },
  {
    "name": "鑫中華門市",
    "address": "臺中市中區中華路一段153.155號一樓157號一二樓",
    "tel": "04-22294106",
    "lat": 24.146457,
    "lng": 120.67784
  },
  {
    "name": "鑫華新門市",
    "address": "臺中市中區中華里中華路一段75號77號及民族路218號",
    "tel": "04-22293905",
    "lat": 24.143757,
    "lng": 120.674977
  },
  {
    "name": "錦花門市",
    "address": "臺中市中區光復路127號",
    "tel": "04-22230402",
    "lat": 24.142702,
    "lng": 120.682095
  },
  {
    "name": "聯華門市",
    "address": "臺中市中區公園路13號",
    "tel": "04-22267149",
    "lat": 24.142294,
    "lng": 120.684155
  },
  {
    "name": "鑫站一門市",
    "address": "臺中市中區臺灣大道一段1號2樓",
    "tel": "04-35097362",
    "lat": 24.136927,
    "lng": 120.685163
  },
  {
    "name": "聯鑫門市",
    "address": "臺中市中區建國路143.145號",
    "tel": "04-22298432",
    "lat": 24.139547,
    "lng": 120.685909
  },
  {
    "name": "綠川門市",
    "address": "臺中市中區成功路35.37號、綠川東街84號",
    "tel": "04-22293934",
    "lat": 24.145889,
    "lng": 120.676914
  },
  {
    "name": "成興門市",
    "address": "臺中市中區柳川里成功路271號1樓、興中街68號1樓",
    "tel": "04-22258097",
    "lat": 24.143744,
    "lng": 120.679347
  },
  {
    "name": "新繼光門市",
    "address": "臺中市中區繼光街64號一樓",
    "tel": "04-22220760",
    "lat": 24.138217,
    "lng": 120.682047
  },
  {
    "name": "市鑫門市",
    "address": "臺中市中區自由路二段9號1樓",
    "tel": "04-22255056",
    "lat": 24.138643,
    "lng": 120.680257
  },
  {
    "name": "一中門市",
    "address": "臺中市北區一中街98號1樓",
    "tel": "04-22293258",
    "lat": 24.149291,
    "lng": 120.685436
  },
  {
    "name": "新育才門市",
    "address": "臺中市北區三民路三段116號",
    "tel": "04-22232877",
    "lat": 24.149965,
    "lng": 120.68437
  },
  {
    "name": "錦中門市",
    "address": "臺中市北區三民路三段258號",
    "tel": "04-22361820",
    "lat": 24.155301,
    "lng": 120.687201
  },
  {
    "name": "汶昇門市",
    "address": "臺中市北區中清路一段102號",
    "tel": "04-22035790",
    "lat": 24.153715,
    "lng": 120.677483
  },
  {
    "name": "汶莊門市",
    "address": "臺中市北區中清路一段102號1樓",
    "tel": "04-22063620",
    "lat": 24.153715,
    "lng": 120.677483
  },
  {
    "name": "亞太門市",
    "address": "臺中市北區中清路一段506、508號",
    "tel": "04-22057324",
    "lat": 24.173351,
    "lng": 120.671653
  },
  {
    "name": "雅昌門市",
    "address": "臺中市北區中清路一段569號",
    "tel": "04-22984769",
    "lat": 24.16888,
    "lng": 120.672388
  },
  {
    "name": "華太門市",
    "address": "臺中市北區中華路二段137號",
    "tel": "04-22061723",
    "lat": 24.149128,
    "lng": 120.680601
  },
  {
    "name": "旭日門市",
    "address": "臺中市北區五權路272.274.276號與太平路221號",
    "tel": "04-22065223",
    "lat": 24.154128,
    "lng": 120.685238
  },
  {
    "name": "奕慶門市",
    "address": "臺中市北區五權路387號及五常街13號15號",
    "tel": "04-22014671",
    "lat": 24.152954,
    "lng": 120.681112
  },
  {
    "name": "健興門市",
    "address": "臺中市北區健行路354號",
    "tel": "04-22363079",
    "lat": 24.159247,
    "lng": 120.683026
  },
  {
    "name": "益華門市",
    "address": "臺中市北區健行路49號1樓",
    "tel": "04-22301107",
    "lat": 24.158736,
    "lng": 120.68913
  },
  {
    "name": "健勝門市",
    "address": "臺中市北區健行路701號",
    "tel": "04-22082596",
    "lat": 24.159039,
    "lng": 120.673468
  },
  {
    "name": "東義門市",
    "address": "臺中市北區北平路二段141號1樓",
    "tel": "04-22981487",
    "lat": 24.171458,
    "lng": 120.677778
  },
  {
    "name": "新北平門市",
    "address": "臺中市北區北平路二段96號",
    "tel": "04-22968483",
    "lat": 24.171355,
    "lng": 120.675054
  },
  {
    "name": "富強門市",
    "address": "臺中市北區國強街142號及天祥街100號1樓",
    "tel": "04-22338064",
    "lat": 24.16063,
    "lng": 120.697453
  },
  {
    "name": "醫德門市",
    "address": "臺中市北區大德街87號1樓",
    "tel": "04-22075331",
    "lat": 24.158711,
    "lng": 120.67864
  },
  {
    "name": "文津門市",
    "address": "臺中市北區天津路二段138之10號之11號",
    "tel": "04-22994768",
    "lat": 24.169781,
    "lng": 120.67634
  },
  {
    "name": "雅津門市",
    "address": "臺中市北區天津路二段9號.11號",
    "tel": "04-22939278",
    "lat": 24.170235,
    "lng": 120.672892
  },
  {
    "name": "忠太門市",
    "address": "臺中市北區太原路一段492號地下1層和忠明八街1號1樓",
    "tel": "04-22063209",
    "lat": 24.164787,
    "lng": 120.670705
  },
  {
    "name": "學士門市",
    "address": "臺中市北區學士路163號165號",
    "tel": "04-22038425",
    "lat": 24.158853,
    "lng": 120.680826
  },
  {
    "name": "中醫五權門市",
    "address": "臺中市北區學士路2號",
    "tel": "04-22331972",
    "lat": 24.153808,
    "lng": 120.682823
  },
  {
    "name": "婷婷門市",
    "address": "臺中市北區學士路67號69號1樓",
    "tel": "04-22081433",
    "lat": 24.154748,
    "lng": 120.681766
  },
  {
    "name": "德毅門市",
    "address": "臺中市北區尊賢街9號",
    "tel": "04-22278757",
    "lat": 24.148637,
    "lng": 120.685269
  },
  {
    "name": "庚樺門市",
    "address": "臺中市北區崇德路一段143之2號",
    "tel": "04-22349868",
    "lat": 24.161473,
    "lng": 120.684836
  },
  {
    "name": "豐華門市",
    "address": "臺中市北區崇德里進化北路148號1樓及榮華街121號1樓",
    "tel": "04-22378824",
    "lat": 24.163218,
    "lng": 120.686747
  },
  {
    "name": "新德化門市",
    "address": "臺中市北區德化街660號",
    "tel": "04-22084550",
    "lat": 24.161439,
    "lng": 120.664835
  },
  {
    "name": "忠權門市",
    "address": "臺中市北區忠明路426號1樓",
    "tel": "04-22061836",
    "lat": 24.162597,
    "lng": 120.669516
  },
  {
    "name": "文川門市",
    "address": "臺中市北區文心路四段230號1樓",
    "tel": "04-22994042",
    "lat": 24.172792,
    "lng": 120.67872
  },
  {
    "name": "光大國宅門市",
    "address": "臺中市北區文莊里日興街180號1樓",
    "tel": "04-22068491",
    "lat": 24.150901,
    "lng": 120.675672
  },
  {
    "name": "新東峰門市",
    "address": "臺中市北區東光路340號",
    "tel": "04-22349431",
    "lat": 24.153877,
    "lng": 120.699026
  },
  {
    "name": "美德門市",
    "address": "臺中市北區民權路472號1樓466巷1.3號1樓",
    "tel": "04-22071869",
    "lat": 24.156089,
    "lng": 120.669661
  },
  {
    "name": "科博館門市",
    "address": "臺中市北區淡溝里博館路92號1樓",
    "tel": "04-23268634",
    "lat": 24.155479,
    "lng": 120.66648
  },
  {
    "name": "淡溝門市",
    "address": "臺中市北區淡溝里民權路361號1樓",
    "tel": "04-22065373",
    "lat": 24.156714,
    "lng": 120.670289
  },
  {
    "name": "新通豪門市",
    "address": "臺中市北區漢口路三段101號",
    "tel": "04-22991400",
    "lat": 24.167002,
    "lng": 120.669233
  },
  {
    "name": "漢華門市",
    "address": "臺中市北區漢口路五段60號62號66號1樓",
    "tel": "04-22355816",
    "lat": 24.166837,
    "lng": 120.686567
  },
  {
    "name": "賴厝門市",
    "address": "臺中市北區漢口路四段102號1樓.地下樓",
    "tel": "04-22994792",
    "lat": 24.166846,
    "lng": 120.677612
  },
  {
    "name": "篤行門市",
    "address": "臺中市北區篤行路120號122號",
    "tel": "04-22015811",
    "lat": 24.148074,
    "lng": 120.676242
  },
  {
    "name": "中醫門市",
    "address": "臺中市北區育德路13號1樓",
    "tel": "04-22078812",
    "lat": 24.157104,
    "lng": 120.679772
  },
  {
    "name": "中醫安康門市",
    "address": "臺中市北區育德路27號1樓",
    "tel": "04-22073925",
    "lat": 24.157021,
    "lng": 120.679136
  },
  {
    "name": "中友門市",
    "address": "臺中市北區育才北路74號76號",
    "tel": "04-22256137",
    "lat": 24.153017,
    "lng": 120.685121
  },
  {
    "name": "微笑門市",
    "address": "臺中市北區育樂街66.68號一樓及夾層",
    "tel": "04-22368133",
    "lat": 24.15791,
    "lng": 120.691225
  },
  {
    "name": "合作門市",
    "address": "臺中市北區自強一街1號",
    "tel": "04-23608343",
    "lat": 24.152922,
    "lng": 120.696907
  },
  {
    "name": "嘟嘟門市",
    "address": "臺中市北區興進路60號",
    "tel": "04-22384760",
    "lat": 24.155745,
    "lng": 120.69743
  },
  {
    "name": "博一門市",
    "address": "臺中市北區英才路388號388之1號及博館一街37號",
    "tel": "04-23212830",
    "lat": 24.154492,
    "lng": 120.668062
  },
  {
    "name": "昌鴻門市",
    "address": "臺中市北區賴厝里山西路一段48號",
    "tel": "04-22990002",
    "lat": 24.1656,
    "lng": 120.675497
  },
  {
    "name": "永進門市",
    "address": "臺中市北區進化北路297號",
    "tel": "04-22366485",
    "lat": 24.162872,
    "lng": 120.682512
  },
  {
    "name": "超學門市",
    "address": "臺中市北區進化北路327號與325號1樓",
    "tel": "04-22369703",
    "lat": 24.16291,
    "lng": 120.681101
  },
  {
    "name": "衛道門市",
    "address": "臺中市北區進化北路378-6號",
    "tel": "04-22353537",
    "lat": 24.16335,
    "lng": 120.680105
  },
  {
    "name": "元保門市",
    "address": "臺中市北區進化北路413號1樓",
    "tel": "04-22068717",
    "lat": 24.16296,
    "lng": 120.676852
  },
  {
    "name": "進合門市",
    "address": "臺中市北區進化路328號",
    "tel": "04-23609986",
    "lat": 24.153447,
    "lng": 120.694622
  },
  {
    "name": "育仁門市",
    "address": "臺中市北區進化路581號、583號1樓",
    "tel": "04-22373045",
    "lat": 24.160184,
    "lng": 120.694174
  },
  {
    "name": "立夫門市",
    "address": "臺中市北區邱厝里學士路95號１樓",
    "tel": "04-22070910",
    "lat": 24.156773,
    "lng": 120.681082
  },
  {
    "name": "興悅門市",
    "address": "臺中市北區金華里進德北路160號162號",
    "tel": "04-23602265",
    "lat": 24.154823,
    "lng": 120.693044
  },
  {
    "name": "新民國門市",
    "address": "臺中市北區金龍里三民路三段289號",
    "tel": "04-22330621",
    "lat": 24.156604,
    "lng": 120.688077
  },
  {
    "name": "錦新門市",
    "address": "臺中市北區錦新街70-2號70-3號及一中街136-2號136-6號",
    "tel": "04-22257113",
    "lat": 24.153167,
    "lng": 120.686854
  },
  {
    "name": "親親門市",
    "address": "臺中市北區錦洲里北屯路14號.14-2號.14-3號1樓",
    "tel": "04-22372379",
    "lat": 24.160495,
    "lng": 120.692131
  },
  {
    "name": "平西門市",
    "address": "臺中市北區陜西路107號109號",
    "tel": "04-22936706",
    "lat": 24.171309,
    "lng": 120.668117
  },
  {
    "name": "陜西門市",
    "address": "臺中市北區陜西路48號48之1號1樓",
    "tel": "04-22918766",
    "lat": "-",
    "lng": "-"
  },
  {
    "name": "雙行門市",
    "address": "臺中市北區雙十路二段47號",
    "tel": "04-22278400",
    "lat": 24.153134,
    "lng": 120.688768
  },
  {
    "name": "丰康門市",
    "address": "臺中市北屯區中清西二街10號",
    "tel": "04-22936984",
    "lat": 24.174181,
    "lng": 120.668916
  },
  {
    "name": "萬寶門市",
    "address": "臺中市北屯區中清路二段567號一樓",
    "tel": "04-22959440",
    "lat": 24.182435,
    "lng": 120.665617
  },
  {
    "name": "新象門市",
    "address": "臺中市北屯區中清路二段776號778號",
    "tel": "04-24261619",
    "lat": 24.185942,
    "lng": 120.664075
  },
  {
    "name": "陽旭門市",
    "address": "臺中市北屯區北屯路200巷1號及北屯路200-1號一樓、地下一層",
    "tel": "04-22338842",
    "lat": 24.166757,
    "lng": 120.695757
  },
  {
    "name": "寶昇門市",
    "address": "臺中市北屯區北屯路224之1號",
    "tel": "04-22313622",
    "lat": 24.168828,
    "lng": 120.697064
  },
  {
    "name": "昌順門市",
    "address": "臺中市北屯區北屯路439之16號1樓",
    "tel": "04-22439430",
    "lat": 24.179528,
    "lng": 120.700613
  },
  {
    "name": "遠平門市",
    "address": "臺中市北屯區北平路三段75-4號75-5號",
    "tel": "04-22384398",
    "lat": 24.171247,
    "lng": 120.681354
  },
  {
    "name": "同榮門市",
    "address": "臺中市北屯區同榮路161號1樓",
    "tel": "04-24257349",
    "lat": 24.195777,
    "lng": 120.661814
  },
  {
    "name": "北庄門市",
    "address": "臺中市北屯區后庄北路221-1號",
    "tel": "04-24264497",
    "lat": 24.192343,
    "lng": 120.666441
  },
  {
    "name": "后庄門市",
    "address": "臺中市北屯區后庄里后庄路141號1樓",
    "tel": "04-24251026",
    "lat": 24.19058,
    "lng": 120.66565
  },
  {
    "name": "松豪門市",
    "address": "臺中市北屯區四平路218號",
    "tel": "04-24214950",
    "lat": 24.189026,
    "lng": 120.680342
  },
  {
    "name": "丰瑞門市",
    "address": "臺中市北屯區四民里四平路563號",
    "tel": "04-24214855",
    "lat": 24.193997,
    "lng": 120.681872
  },
  {
    "name": "國校門市",
    "address": "臺中市北屯區國校巷16號",
    "tel": "04-22336256",
    "lat": 24.164835,
    "lng": 120.690965
  },
  {
    "name": "中清門市",
    "address": "臺中市北屯區大德里中清路二段336號1樓",
    "tel": "04-22952695",
    "lat": 24.179029,
    "lng": 120.668315
  },
  {
    "name": "大唐門市",
    "address": "臺中市北屯區大連北街98號1樓",
    "tel": "04-22994072",
    "lat": 24.178189,
    "lng": 120.672496
  },
  {
    "name": "大連門市",
    "address": "臺中市北屯區大連路一段40號1樓",
    "tel": "04-22953446",
    "lat": 24.175456,
    "lng": 120.672259
  },
  {
    "name": "昌大門市",
    "address": "臺中市北屯區大連路二段283號",
    "tel": "04-22477783",
    "lat": 24.175588,
    "lng": 120.690186
  },
  {
    "name": "熱天門市",
    "address": "臺中市北屯區天津路四段68號1樓",
    "tel": "04-22373652",
    "lat": 24.169167,
    "lng": 120.6871
  },
  {
    "name": "鈞泰門市",
    "address": "臺中市北屯區太原路三段1112之1號1120之1號1樓",
    "tel": "04-24368075",
    "lat": 24.163843,
    "lng": 120.715097
  },
  {
    "name": "健太門市",
    "address": "臺中市北屯區太原路三段1138號",
    "tel": "04-24367881",
    "lat": 24.163716,
    "lng": 120.715649
  },
  {
    "name": "中臺禾豐門市",
    "address": "臺中市北屯區太原路三段1505號",
    "tel": "04-24390923",
    "lat": 24.161425,
    "lng": 120.733521
  },
  {
    "name": "新北屯門市",
    "address": "臺中市北屯區太原路三段516號1樓",
    "tel": "04-22369034",
    "lat": 24.164795,
    "lng": 120.696459
  },
  {
    "name": "景和門市",
    "address": "臺中市北屯區太原路三段907號",
    "tel": "04-24368700",
    "lat": 24.164615,
    "lng": 120.713948
  },
  {
    "name": "順太門市",
    "address": "臺中市北屯區太順路112號1樓",
    "tel": "04-24369416",
    "lat": 24.158844,
    "lng": 120.724652
  },
  {
    "name": "北屯幸福讚門市",
    "address": "臺中市北屯區崇德十六路218號",
    "tel": "04-24211641",
    "lat": 24.195257,
    "lng": 120.68781
  },
  {
    "name": "后探門市",
    "address": "臺中市北屯區崇德十路二段361號",
    "tel": "04-24261779",
    "lat": 24.193532,
    "lng": 120.676041
  },
  {
    "name": "豐樂門市",
    "address": "臺中市北屯區崇德路三段608號",
    "tel": "04-24222105",
    "lat": 24.193597,
    "lng": 120.686698
  },
  {
    "name": "鑫巴黎門市",
    "address": "臺中市北屯區崇德路二段199號1樓",
    "tel": "04-22491770",
    "lat": 24.173483,
    "lng": 120.685379
  },
  {
    "name": "崇尚門市",
    "address": "臺中市北屯區崇德路二段450號1樓",
    "tel": "04-22411034",
    "lat": 24.179683,
    "lng": 120.686308
  },
  {
    "name": "新興陽門市",
    "address": "臺中市北屯區平田里興安路一段289號1樓",
    "tel": "04-22431809",
    "lat": 24.1731,
    "lng": 120.694317
  },
  {
    "name": "富宇門市",
    "address": "臺中市北屯區建和路二段273.275號",
    "tel": "04-24367450",
    "lat": 24.179698,
    "lng": 120.725544
  },
  {
    "name": "敦煌門市",
    "address": "臺中市北屯區敦化路一段473號1樓",
    "tel": "04-22925869",
    "lat": 24.187436,
    "lng": 120.66791
  },
  {
    "name": "敦富門市",
    "address": "臺中市北屯區敦富路371號1樓",
    "tel": "04-24361081",
    "lat": 24.187622,
    "lng": 120.707111
  },
  {
    "name": "巨富門市",
    "address": "臺中市北屯區敦富路807號1樓",
    "tel": "04-24364099",
    "lat": 24.197365,
    "lng": 120.707324
  },
  {
    "name": "文河門市",
    "address": "臺中市北屯區文心路四段500號1樓",
    "tel": "04-22345302",
    "lat": 24.172014,
    "lng": 120.683571
  },
  {
    "name": "七綻門市",
    "address": "臺中市北屯區文心路四段57號",
    "tel": "04-22991842",
    "lat": 24.174118,
    "lng": 120.671986
  },
  {
    "name": "旅順路門市",
    "address": "臺中市北屯區旅順路二段357、359號1樓",
    "tel": "04-22471927",
    "lat": 24.17349,
    "lng": 120.696589
  },
  {
    "name": "川越門市",
    "address": "臺中市北屯區昌平東六路121號",
    "tel": "04-24229341",
    "lat": 24.18579,
    "lng": 120.690211
  },
  {
    "name": "昌陽門市",
    "address": "臺中市北屯區昌平路一段264號",
    "tel": "04-22434735",
    "lat": 24.172197,
    "lng": 120.690962
  },
  {
    "name": "昌平門市",
    "address": "臺中市北屯區昌平路一段70號",
    "tel": "04-22326743",
    "lat": 24.168157,
    "lng": 120.693118
  },
  {
    "name": "松竹門市",
    "address": "臺中市北屯區昌平路二段11-1號",
    "tel": "04-22472627",
    "lat": 24.180451,
    "lng": 120.68944
  },
  {
    "name": "昌旺門市",
    "address": "臺中市北屯區昌平路二段12之16號",
    "tel": "04-22474819",
    "lat": 24.182728,
    "lng": 120.688153
  },
  {
    "name": "昌盛門市",
    "address": "臺中市北屯區昌平路二段45號之8及45號之9",
    "tel": "04-24224542",
    "lat": 24.191478,
    "lng": 120.683303
  },
  {
    "name": "景賢八門市",
    "address": "臺中市北屯區景賢八路228號1樓",
    "tel": "04-24362314",
    "lat": 24.16532,
    "lng": 120.709857
  },
  {
    "name": "景大和門市",
    "address": "臺中市北屯區景賢路191號",
    "tel": "04-24364416",
    "lat": 24.166608,
    "lng": 120.722435
  },
  {
    "name": "賢和門市",
    "address": "臺中市北屯區景賢路230號",
    "tel": "04-24360884",
    "lat": 24.166965,
    "lng": 120.724534
  },
  {
    "name": "博吉門市",
    "address": "臺中市北屯區東光路786號1樓",
    "tel": "04-24364574",
    "lat": 24.166962,
    "lng": 120.700616
  },
  {
    "name": "昌和門市",
    "address": "臺中市北屯區東山路一段146之39號",
    "tel": "04-24362834",
    "lat": 24.169377,
    "lng": 120.704672
  },
  {
    "name": "東加門市",
    "address": "臺中市北屯區東山路一段185號",
    "tel": "04-24364709",
    "lat": 24.17062,
    "lng": 120.708226
  },
  {
    "name": "水景門市",
    "address": "臺中市北屯區東山路一段212號",
    "tel": "04-24360603",
    "lat": 24.172712,
    "lng": 120.712998
  },
  {
    "name": "環東門市",
    "address": "臺中市北屯區東山路一段306-1號1.2樓及環中東路二段268號1樓",
    "tel": "04-24360442",
    "lat": 24.175733,
    "lng": 120.720498
  },
  {
    "name": "東侑門市",
    "address": "臺中市北屯區東山路一段396號1樓",
    "tel": "04-22391830",
    "lat": 24.17694,
    "lng": 120.734381
  },
  {
    "name": "天星門市",
    "address": "臺中市北屯區東山路二段77之8、77之9、77之10號1樓",
    "tel": "04-24390965",
    "lat": 24.192171,
    "lng": 120.746708
  },
  {
    "name": "北屯松和門市",
    "address": "臺中市北屯區松和街80號1樓",
    "tel": "04-22470746",
    "lat": 24.178258,
    "lng": 120.693286
  },
  {
    "name": "松強門市",
    "address": "臺中市北屯區松安里崇德六路一段47號",
    "tel": "04-22432398",
    "lat": 24.179722,
    "lng": 120.694768
  },
  {
    "name": "軍松門市",
    "address": "臺中市北屯區松竹五路199號1樓",
    "tel": "04-24366314",
    "lat": 24.17808,
    "lng": 120.713185
  },
  {
    "name": "松探門市",
    "address": "臺中市北屯區松竹五路一段325號",
    "tel": "04-24369434",
    "lat": 24.17479,
    "lng": 120.709514
  },
  {
    "name": "松佑門市",
    "address": "臺中市北屯區松竹五路二段22號1樓",
    "tel": "04-24364087",
    "lat": 24.17474,
    "lng": 120.711188
  },
  {
    "name": "金格門市",
    "address": "臺中市北屯區松竹路一段965號1樓",
    "tel": "04-24368410",
    "lat": 24.182117,
    "lng": 120.712023
  },
  {
    "name": "松東門市",
    "address": "臺中市北屯區松竹路三段125號",
    "tel": "04-22463373",
    "lat": 24.18156,
    "lng": 120.682231
  },
  {
    "name": "竹探門市",
    "address": "臺中市北屯區松竹路三段676-1號",
    "tel": "04-22993843",
    "lat": 24.190308,
    "lng": 120.673618
  },
  {
    "name": "雅樂門市",
    "address": "臺中市北屯區松竹路二段88號",
    "tel": "04-22422858",
    "lat": 24.182939,
    "lng": 120.699082
  },
  {
    "name": "雅合門市",
    "address": "臺中市北屯區松義街132、136號1樓及夾層",
    "tel": "04-22479951",
    "lat": 24.188015,
    "lng": 120.698612
  },
  {
    "name": "松賀門市",
    "address": "臺中市北屯區松茂里松山街148號1樓和地下層",
    "tel": "04-22474267",
    "lat": 24.186707,
    "lng": 120.698278
  },
  {
    "name": "湧順門市",
    "address": "臺中市北屯區樹孝路666號",
    "tel": "04-24367340",
    "lat": 24.16016,
    "lng": 120.721671
  },
  {
    "name": "大坑門市",
    "address": "臺中市北屯區橫坑巷28-1號",
    "tel": "04-22398412",
    "lat": 24.178352,
    "lng": 120.740711
  },
  {
    "name": "連河門市",
    "address": "臺中市北屯區河北路二段218之1號1樓",
    "tel": "04-22477023",
    "lat": 24.176193,
    "lng": 120.683899
  },
  {
    "name": "瀋陽門市",
    "address": "臺中市北屯區瀋陽路一段104號1樓",
    "tel": "04-22911125",
    "lat": 24.173995,
    "lng": 120.678625
  },
  {
    "name": "熱陽門市",
    "address": "臺中市北屯區熱河路二段217號",
    "tel": "04-22425271",
    "lat": 24.173798,
    "lng": 120.687825
  },
  {
    "name": "總太門市",
    "address": "臺中市北屯區環太東路500、501號1樓",
    "tel": "04-23937847",
    "lat": 24.159866,
    "lng": 120.737844
  },
  {
    "name": "祥順東門市",
    "address": "臺中市北屯區祥順東路一段2號",
    "tel": "04-24391746",
    "lat": 24.161283,
    "lng": 120.729144
  },
  {
    "name": "祥順門市",
    "address": "臺中市北屯區祥順路二段93.95號",
    "tel": "04-24369480",
    "lat": 24.177568,
    "lng": 120.736988
  },
  {
    "name": "中醫大門市",
    "address": "臺中市北屯區經貿路一段110號",
    "tel": "04-22994999",
    "lat": 24.178925,
    "lng": 120.661517
  },
  {
    "name": "興昌門市",
    "address": "臺中市北屯區興安路二段62號1樓",
    "tel": "04-22435875",
    "lat": 24.176511,
    "lng": 120.694897
  },
  {
    "name": "欣花園門市",
    "address": "臺中市北屯區華美西街二段478號",
    "tel": "04-22937902",
    "lat": 24.175761,
    "lng": 120.668773
  },
  {
    "name": "軍福門市",
    "address": "臺中市北屯區軍功路一段500號",
    "tel": "04-24376717",
    "lat": 24.171541,
    "lng": 120.718872
  },
  {
    "name": "松潭門市",
    "address": "臺中市北屯區軍功路二段183號1樓",
    "tel": "04-24392157",
    "lat": 24.179915,
    "lng": 120.719373
  },
  {
    "name": "樂河門市",
    "address": "臺中市北屯區軍和街457號1樓和461號1樓2樓",
    "tel": "04-24390860",
    "lat": 24.177171,
    "lng": 120.724791
  },
  {
    "name": "軍榮門市",
    "address": "臺中市北屯區軍榮一街90號1樓",
    "tel": "04-24390046",
    "lat": 24.179994,
    "lng": 120.720654
  },
  {
    "name": "軍建門市",
    "address": "臺中市北屯區軍福十三路198號",
    "tel": "04-24367480",
    "lat": 24.172338,
    "lng": 120.724404
  },
  {
    "name": "君悅門市",
    "address": "臺中市北屯區軍福十三路68號",
    "tel": "04-24392047",
    "lat": 24.170743,
    "lng": 120.731714
  },
  {
    "name": "平興門市",
    "address": "臺中市北屯區遼寧路一段120號",
    "tel": "04-22421651",
    "lat": 24.174392,
    "lng": 120.697005
  },
  {
    "name": "福寶門市",
    "address": "臺中市北屯區陳平路50號",
    "tel": "04-22935012",
    "lat": 24.184871,
    "lng": 120.666906
  },
  {
    "name": "北屯雷中街門市",
    "address": "臺中市北屯區雷中街2-18號1樓",
    "tel": "04-22993952",
    "lat": 24.180357,
    "lng": 120.668214
  },
  {
    "name": "逢運門市",
    "address": "臺中市北屯區雷中街95號",
    "tel": "04-22984055",
    "lat": 24.184864,
    "lng": 120.670044
  },
  {
    "name": "青河門市",
    "address": "臺中市北屯區青島路三段155號1樓",
    "tel": "04-22362409",
    "lat": 24.168569,
    "lng": 120.68346
  },
  {
    "name": "雅典門市",
    "address": "臺中市南區三民西路377號西川一路1號",
    "tel": "04-23787407",
    "lat": 24.129327,
    "lng": 120.65542
  },
  {
    "name": "權貴門市",
    "address": "臺中市南區五權南路189號",
    "tel": "04-22617268",
    "lat": 24.125686,
    "lng": 120.669821
  },
  {
    "name": "詠權門市",
    "address": "臺中市南區五權南路527號",
    "tel": "04-22655461",
    "lat": 24.116983,
    "lng": 120.669819
  },
  {
    "name": "南美門市",
    "address": "臺中市南區南平路182號",
    "tel": "04-22650922",
    "lat": 24.123225,
    "lng": 120.665751
  },
  {
    "name": "興惠門市",
    "address": "臺中市南區國光路250號",
    "tel": "04-22850793",
    "lat": 24.12279,
    "lng": 120.678961
  },
  {
    "name": "興大門市",
    "address": "臺中市南區國光路301號",
    "tel": "04-22814276",
    "lat": 24.122161,
    "lng": 120.679524
  },
  {
    "name": "新國光門市",
    "address": "臺中市南區國光路82及84號;愛國街67及69號",
    "tel": "04-22203755",
    "lat": "-",
    "lng": "-"
  },
  {
    "name": "文慶門市",
    "address": "臺中市南區大慶街一段243.245號",
    "tel": "04-22658481",
    "lat": 24.113551,
    "lng": 120.65372
  },
  {
    "name": "京成門市",
    "address": "臺中市南區學府路145號、臺中市南區學府路147巷1、3、5、7號",
    "tel": "04-22244386",
    "lat": 24.128814,
    "lng": 120.67401
  },
  {
    "name": "新學和門市",
    "address": "臺中市南區學府路70號70-1號72號1樓",
    "tel": "04-22856891",
    "lat": 24.126923,
    "lng": 120.675257
  },
  {
    "name": "長億門市",
    "address": "臺中市南區工學路108號",
    "tel": "04-22653820",
    "lat": 24.117135,
    "lng": 120.661739
  },
  {
    "name": "大時代門市",
    "address": "臺中市南區工學路55號57號",
    "tel": "04-22609203",
    "lat": 24.116669,
    "lng": 120.665826
  },
  {
    "name": "聯信門市",
    "address": "臺中市南區建成路1107號1樓",
    "tel": "04-22853023",
    "lat": 24.128155,
    "lng": 120.682411
  },
  {
    "name": "建丞門市",
    "address": "臺中市南區建成路1683號1樓",
    "tel": "04-22859838",
    "lat": 24.126199,
    "lng": 120.673745
  },
  {
    "name": "保運門市",
    "address": "臺中市南區復興北路783號",
    "tel": "04-22603023",
    "lat": 24.112736,
    "lng": 120.646824
  },
  {
    "name": "義興門市",
    "address": "臺中市南區復興路一段128號",
    "tel": "04-22602308",
    "lat": 24.112725,
    "lng": 120.652433
  },
  {
    "name": "民主門市",
    "address": "臺中市南區復興路三段320、322、324、326號",
    "tel": "04-22234962",
    "lat": "-",
    "lng": "-"
  },
  {
    "name": "興福門市",
    "address": "臺中市南區復興路二段175之1之2號",
    "tel": "04-22608279",
    "lat": 24.127437,
    "lng": 120.666011
  },
  {
    "name": "生活門市",
    "address": "臺中市南區復興路二段71巷70號1樓及忠明南路730巷17號1樓",
    "tel": "04-22603843",
    "lat": 24.123566,
    "lng": 120.658866
  },
  {
    "name": "無尾熊門市",
    "address": "臺中市南區德富路73號75號1樓",
    "tel": "04-22605412",
    "lat": 24.120646,
    "lng": 120.653921
  },
  {
    "name": "壹盛門市",
    "address": "臺中市南區忠孝路166號",
    "tel": "04-22855886",
    "lat": 24.129624,
    "lng": 120.682541
  },
  {
    "name": "明興門市",
    "address": "臺中市南區忠明南路929號",
    "tel": "04-22654252",
    "lat": 24.119281,
    "lng": 120.665509
  },
  {
    "name": "福田門市",
    "address": "臺中市南區文心南路883、885號1樓",
    "tel": "04-22612900",
    "lat": 24.109164,
    "lng": 120.661309
  },
  {
    "name": "大東家門市",
    "address": "臺中市南區新榮里復興路三段138、140號",
    "tel": "04-22214273",
    "lat": 24.130963,
    "lng": 120.675079
  },
  {
    "name": "宜寧門市",
    "address": "臺中市南區東興路一段21號1樓",
    "tel": "04-22605645",
    "lat": 24.11838,
    "lng": 120.657285
  },
  {
    "name": "興興門市",
    "address": "臺中市南區東興路一段77號",
    "tel": "04-22656148",
    "lat": 24.120508,
    "lng": 120.655251
  },
  {
    "name": "慶樹門市",
    "address": "臺中市南區樹德里大慶街二段36號",
    "tel": "04-22609823",
    "lat": 24.115821,
    "lng": 120.650533
  },
  {
    "name": "復慶門市",
    "address": "臺中市南區樹義里大慶街二段5-2號",
    "tel": "04-22638927",
    "lat": 24.114208,
    "lng": 120.652608
  },
  {
    "name": "樹義門市",
    "address": "臺中市南區福田三街156號1樓",
    "tel": "04-22632372",
    "lat": 24.111097,
    "lng": 120.656084
  },
  {
    "name": "鑫廣門市",
    "address": "臺中市南區福順里忠明南路787號",
    "tel": "04-22650986",
    "lat": 24.123502,
    "lng": 120.660871
  },
  {
    "name": "興學門市",
    "address": "臺中市南區積善里學府路2號",
    "tel": "04-22857397",
    "lat": 24.124697,
    "lng": 120.675394
  },
  {
    "name": "百祐門市",
    "address": "臺中市南區美村路二段188號190號1樓",
    "tel": "04-22651641",
    "lat": 24.125057,
    "lng": 120.663497
  },
  {
    "name": "光輝門市",
    "address": "臺中市南區美村路二段79號81號1F",
    "tel": "04-23754586",
    "lat": 24.12892,
    "lng": 120.662233
  },
  {
    "name": "頂橋門市",
    "address": "臺中市南區興大路338號340號",
    "tel": "04-22857908",
    "lat": 24.118297,
    "lng": 120.671668
  },
  {
    "name": "高工門市",
    "address": "臺中市南區高工路168號1樓",
    "tel": "04-22634012",
    "lat": 24.113059,
    "lng": 120.66155
  },
  {
    "name": "超贊門市",
    "address": "臺中市南區高工路202號1樓",
    "tel": "04-22607922",
    "lat": 24.113219,
    "lng": 120.663545
  },
  {
    "name": "臺火門市",
    "address": "臺中市南區高工路355號1樓",
    "tel": "04-22600615",
    "lat": 24.114401,
    "lng": 120.667008
  },
  {
    "name": "嶺東二門市",
    "address": "臺中市南屯區中臺路7號",
    "tel": "04-23899614",
    "lat": 24.135767,
    "lng": 120.602137
  },
  {
    "name": "上楓樹門市",
    "address": "臺中市南屯區中和里黎明路一段263號",
    "tel": "04-24702620",
    "lat": 24.118233,
    "lng": 120.627441
  },
  {
    "name": "工站門市",
    "address": "臺中市南屯區五權西路三段350號",
    "tel": "04-23502527",
    "lat": 24.16232,
    "lng": 120.606069
  },
  {
    "name": "大進門市",
    "address": "臺中市南屯區五權西路二段185號",
    "tel": "04-24759161",
    "lat": 24.139823,
    "lng": 120.650094
  },
  {
    "name": "澤康門市",
    "address": "臺中市南屯區五權西路二段412號1樓",
    "tel": "04-23811490",
    "lat": 24.140333,
    "lng": 120.64491
  },
  {
    "name": "權興門市",
    "address": "臺中市南屯區五權西路二段62號",
    "tel": "04-24717712",
    "lat": 24.140412,
    "lng": 120.652826
  },
  {
    "name": "權旺門市",
    "address": "臺中市南屯區五權西路二段812號",
    "tel": "04-23806902",
    "lat": 24.143732,
    "lng": 120.635444
  },
  {
    "name": "鑫權勝門市",
    "address": "臺中市南屯區五權西路二段882號",
    "tel": "04-23801953",
    "lat": 24.144729,
    "lng": 120.633966
  },
  {
    "name": "保安門市",
    "address": "臺中市南屯區保安十街140號.142號.146號.148號",
    "tel": "04-23595626",
    "lat": 24.147978,
    "lng": 120.608311
  },
  {
    "name": "富亦門市",
    "address": "臺中市南屯區公益路二段939號1樓和龍富路四段552號1樓",
    "tel": "04-23890475",
    "lat": 24.151509,
    "lng": 120.626741
  },
  {
    "name": "墩南門市",
    "address": "臺中市南屯區南屯路二段210、212號1樓",
    "tel": "04-24731595",
    "lat": 24.143612,
    "lng": 120.634669
  },
  {
    "name": "南屯門市",
    "address": "臺中市南屯區南屯路二段570號",
    "tel": "04-23891441",
    "lat": 24.13851,
    "lng": 120.641684
  },
  {
    "name": "惠宇門市",
    "address": "臺中市南屯區向上南路一段167之1號",
    "tel": "04-24739173",
    "lat": 24.144812,
    "lng": 120.653749
  },
  {
    "name": "熊貓門市",
    "address": "臺中市南屯區向上南路一段325號1樓",
    "tel": "04-24754550",
    "lat": 24.144742,
    "lng": 120.647658
  },
  {
    "name": "豐河門市",
    "address": "臺中市南屯區向上路二段376號",
    "tel": "04-23806215",
    "lat": 24.147311,
    "lng": 120.638486
  },
  {
    "name": "精站門市",
    "address": "臺中市南屯區向上路五段289號",
    "tel": "04-23801449",
    "lat": 24.150949,
    "lng": 120.608864
  },
  {
    "name": "海德堡門市",
    "address": "臺中市南屯區向心南路928號930號",
    "tel": "04-24759288",
    "lat": 24.136127,
    "lng": 120.644099
  },
  {
    "name": "墩陽門市",
    "address": "臺中市南屯區大墩10街254號1樓",
    "tel": "04-23289729",
    "lat": "-",
    "lng": "-"
  },
  {
    "name": "向心門市",
    "address": "臺中市南屯區大墩6街284號",
    "tel": "04-24751265",
    "lat": "-",
    "lng": "-"
  },
  {
    "name": "惠馨門市",
    "address": "臺中市南屯區大墩南路332.336號",
    "tel": "04-24735180",
    "lat": 24.135401,
    "lng": 120.650277
  },
  {
    "name": "聚懋門市",
    "address": "臺中市南屯區大墩路287號289號一樓",
    "tel": "04-24750835",
    "lat": 24.143588,
    "lng": 120.649691
  },
  {
    "name": "墩富門市",
    "address": "臺中市南屯區大墩路572號",
    "tel": "04-23207553",
    "lat": 24.149657,
    "lng": 120.650042
  },
  {
    "name": "墩業門市",
    "address": "臺中市南屯區大墩路717-5號",
    "tel": "04-23275693",
    "lat": 24.153293,
    "lng": 120.649522
  },
  {
    "name": "鄉林門市",
    "address": "臺中市南屯區大業路177號",
    "tel": "04-23107226",
    "lat": 24.153388,
    "lng": 120.651222
  },
  {
    "name": "昌進門市",
    "address": "臺中市南屯區大進街387號1樓.大墩十二街151號1樓",
    "tel": "04-23203647",
    "lat": 24.149806,
    "lng": 120.651291
  },
  {
    "name": "春安門市",
    "address": "臺中市南屯區嶺東南路165號",
    "tel": "04-23897480",
    "lat": 24.135459,
    "lng": 120.610131
  },
  {
    "name": "嶺東門市",
    "address": "臺中市南屯區嶺東路1號",
    "tel": "04-23893334",
    "lat": 24.137986,
    "lng": 120.607637
  },
  {
    "name": "精科門市",
    "address": "臺中市南屯區嶺東路368號",
    "tel": "04-23807963",
    "lat": 24.145265,
    "lng": 120.61098
  },
  {
    "name": "文嶺門市",
    "address": "臺中市南屯區嶺東路806號",
    "tel": "04-23805911",
    "lat": 24.150682,
    "lng": 120.612454
  },
  {
    "name": "工權門市",
    "address": "臺中市南屯區工業區十八路31-1號",
    "tel": "04-23553123",
    "lat": 24.155676,
    "lng": 120.609916
  },
  {
    "name": "中勇門市",
    "address": "臺中市南屯區忠勇路105之27號1樓",
    "tel": "04-23809105",
    "lat": 24.151692,
    "lng": 120.615785
  },
  {
    "name": "嶺寶門市",
    "address": "臺中市南屯區忠勇路23-12號1樓",
    "tel": "04-23862931",
    "lat": 24.137353,
    "lng": 120.611974
  },
  {
    "name": "鑫文山門市",
    "address": "臺中市南屯區文山路20號和22號",
    "tel": "04-23552948",
    "lat": 24.144441,
    "lng": 120.610191
  },
  {
    "name": "鑫鑽門市",
    "address": "臺中市南屯區文心南三路663號",
    "tel": "04-23860795",
    "lat": 24.133234,
    "lng": 120.64379
  },
  {
    "name": "文豐門市",
    "address": "臺中市南屯區文心南五路ㄧ段319號",
    "tel": "04-24738232",
    "lat": 24.131841,
    "lng": 120.644854
  },
  {
    "name": "豐春門市",
    "address": "臺中市南屯區文心南路100號",
    "tel": "04-24734980",
    "lat": 24.134511,
    "lng": 120.646741
  },
  {
    "name": "新墩興門市",
    "address": "臺中市南屯區東興路二段98號1樓",
    "tel": "04-24712169",
    "lat": 24.138705,
    "lng": 120.653221
  },
  {
    "name": "楓和門市",
    "address": "臺中市南屯區楓樹里楓和路700-1號及楓樹西街292號1樓",
    "tel": "04-24795684",
    "lat": 24.117978,
    "lng": 120.629459
  },
  {
    "name": "嶺春門市",
    "address": "臺中市南屯區永春北路53號1樓",
    "tel": "04-23808491",
    "lat": 24.140145,
    "lng": 120.612091
  },
  {
    "name": "新春社門市",
    "address": "臺中市南屯區永春南路136號138號",
    "tel": "04-23802312",
    "lat": 24.138642,
    "lng": 120.609538
  },
  {
    "name": "嶺中門市",
    "address": "臺中市南屯區永春南路58號",
    "tel": "04-23806007",
    "lat": 24.138532,
    "lng": 120.611367
  },
  {
    "name": "永春門市",
    "address": "臺中市南屯區永春東七路629號",
    "tel": "04-23893263",
    "lat": 24.141204,
    "lng": 120.633374
  },
  {
    "name": "詠豐門市",
    "address": "臺中市南屯區永春東路1230號",
    "tel": "04-23809792",
    "lat": 24.136588,
    "lng": 120.634337
  },
  {
    "name": "興春門市",
    "address": "臺中市南屯區永春東路96號",
    "tel": "04-24715845",
    "lat": 24.135155,
    "lng": 120.653374
  },
  {
    "name": "惠文門市",
    "address": "臺中市南屯區河南路四段226號228號1樓",
    "tel": "04-22546680",
    "lat": 24.154577,
    "lng": 120.636425
  },
  {
    "name": "瑞陽門市",
    "address": "臺中市南屯區河南路四段442號446號1、2樓",
    "tel": "04-22510797",
    "lat": 24.150397,
    "lng": 120.637302
  },
  {
    "name": "墩正門市",
    "address": "臺中市南屯區溝墘里大墩十一街330號1樓",
    "tel": "04-22510497",
    "lat": "-",
    "lng": "-"
  },
  {
    "name": "哈魚門市",
    "address": "臺中市南屯區環中路四段6號",
    "tel": "04-23899574",
    "lat": 24.148053,
    "lng": 120.622853
  },
  {
    "name": "鑫大立門市",
    "address": "臺中市南屯區精科路11號2樓",
    "tel": "04-23501971",
    "lat": 24.147321,
    "lng": 120.60307
  },
  {
    "name": "大立光門市",
    "address": "臺中市南屯區精科路13號4樓",
    "tel": "04-23594826",
    "lat": 24.147964,
    "lng": 120.604766
  },
  {
    "name": "精福門市",
    "address": "臺中市南屯區精誠路500號",
    "tel": "04-24715248",
    "lat": 24.143295,
    "lng": 120.654925
  },
  {
    "name": "碩豐門市",
    "address": "臺中市南屯區萬和路一段30號",
    "tel": "04-23894902",
    "lat": 24.133755,
    "lng": 120.637443
  },
  {
    "name": "新豐功門市",
    "address": "臺中市南屯區豐樂里永春東路860號",
    "tel": "04-23862140",
    "lat": 24.1351,
    "lng": 120.641157
  },
  {
    "name": "黎明東門市",
    "address": "臺中市南屯區黎明東街22號",
    "tel": "04-23810985",
    "lat": 24.142814,
    "lng": 120.638835
  },
  {
    "name": "萬文門市",
    "address": "臺中市南屯區黎明路一段1033號",
    "tel": "04-23840027",
    "lat": 24.13803,
    "lng": 120.637277
  },
  {
    "name": "精田門市",
    "address": "臺中市南屯區黎明路一段142號",
    "tel": "04-24700590",
    "lat": 24.115221,
    "lng": 120.626607
  },
  {
    "name": "向上門市",
    "address": "臺中市南屯區黎明路二段193號",
    "tel": "04-23846325",
    "lat": 24.146792,
    "lng": 120.636002
  },
  {
    "name": "惠中門市",
    "address": "臺中市南屯區黎明路二段425號1樓",
    "tel": "04-22515764",
    "lat": 24.152132,
    "lng": 120.634883
  },
  {
    "name": "豐采門市",
    "address": "臺中市南屯區黎明路二段504、506、506-1號",
    "tel": "04-22598297",
    "lat": 24.15934,
    "lng": 120.634122
  },
  {
    "name": "久豐門市",
    "address": "臺中市后里區三光路36號",
    "tel": "04-25588646",
    "lat": 24.304713,
    "lng": 120.710425
  },
  {
    "name": "后寶門市",
    "address": "臺中市后里區三豐路三段415.417號",
    "tel": "04-25580374",
    "lat": 24.308661,
    "lng": 120.722139
  },
  {
    "name": "寶利旺門市",
    "address": "臺中市后里區三豐路三段887號1樓",
    "tel": "04-25585834",
    "lat": 24.306132,
    "lng": 120.721631
  },
  {
    "name": "美豐門市",
    "address": "臺中市后里區三豐路五段128號",
    "tel": "04-25584887",
    "lat": 24.329332,
    "lng": 120.729316
  },
  {
    "name": "彩豐門市",
    "address": "臺中市后里區三豐路五段551號1樓",
    "tel": "04-25589538",
    "lat": 24.339276,
    "lng": 120.731365
  },
  {
    "name": "美光門市",
    "address": "臺中市后里區三豐路四段369號",
    "tel": "04-25584700",
    "lat": 24.318145,
    "lng": 120.724172
  },
  {
    "name": "美芯門市",
    "address": "臺中市后里區三豐路四段369號1樓",
    "tel": "04-25584481",
    "lat": 24.318145,
    "lng": 120.724172
  },
  {
    "name": "泰安綻門市",
    "address": "臺中市后里區九甲七路400號",
    "tel": "04-25588315",
    "lat": 24.328389,
    "lng": 120.716702
  },
  {
    "name": "后科門市",
    "address": "臺中市后里區內東路306號",
    "tel": "04-25582117",
    "lat": 24.307127,
    "lng": 120.73093
  },
  {
    "name": "月湖門市",
    "address": "臺中市后里區公安路147-15號",
    "tel": "04-25582355",
    "lat": 24.306379,
    "lng": 120.706954
  },
  {
    "name": "美晶門市",
    "address": "臺中市后里區后科南路88號1樓",
    "tel": "04-25583235",
    "lat": 24.316862,
    "lng": 120.72601
  },
  {
    "name": "美憶門市",
    "address": "臺中市后里區后科路二段309號1樓",
    "tel": "04-25588400",
    "lat": 24.319268,
    "lng": 120.732445
  },
  {
    "name": "晶材門市",
    "address": "臺中市后里區后科路二段335號",
    "tel": "04-25585159",
    "lat": 24.320139,
    "lng": 120.729062
  },
  {
    "name": "泰安二門市",
    "address": "臺中市后里區安眉路113號",
    "tel": "04-25588405",
    "lat": 24.33038,
    "lng": 120.71146
  },
  {
    "name": "后成門市",
    "address": "臺中市后里區成功路231巷2號",
    "tel": "04-25587533",
    "lat": 24.310932,
    "lng": 120.718407
  },
  {
    "name": "后冠門市",
    "address": "臺中市后里區民生路1號",
    "tel": "04-25581232",
    "lat": 24.30947,
    "lng": 120.716964
  },
  {
    "name": "月眉門市",
    "address": "臺中市后里區民生路226.228號1樓",
    "tel": "04-25570109",
    "lat": 24.309965,
    "lng": 120.706474
  },
  {
    "name": "后東門市",
    "address": "臺中市后里區甲后路一段101號1樓",
    "tel": "04-25570647",
    "lat": 24.309251,
    "lng": 120.730408
  },
  {
    "name": "后興門市",
    "address": "臺中市后里區甲后路一段1202號1樓",
    "tel": "04-25589357",
    "lat": 24.311228,
    "lng": 120.708941
  },
  {
    "name": "后綜門市",
    "address": "臺中市后里區甲后路一段349、351號1樓",
    "tel": "04-25575290",
    "lat": 24.311332,
    "lng": 120.706979
  },
  {
    "name": "后宥門市",
    "address": "臺中市后里區甲后路一段955號",
    "tel": "04-25587727",
    "lat": 24.310735,
    "lng": 120.710283
  },
  {
    "name": "后糖門市",
    "address": "臺中市后里區甲后路二段363號",
    "tel": "04-25584498",
    "lat": 24.313488,
    "lng": 120.694062
  },
  {
    "name": "后旺門市",
    "address": "臺中市后里區甲后路二段742號一樓",
    "tel": "04-25587918",
    "lat": 24.314769,
    "lng": 120.688056
  },
  {
    "name": "新麗寶門市",
    "address": "臺中市后里區福容路201號1樓",
    "tel": "04-25586466",
    "lat": 24.323768,
    "lng": 120.697968
  },
  {
    "name": "福豐門市",
    "address": "臺中市后里區福美路17號",
    "tel": "04-25588374",
    "lat": 24.325956,
    "lng": 120.728604
  },
  {
    "name": "后里廠門市",
    "address": "臺中市后里區馬場路1號",
    "tel": "04-25584367",
    "lat": 24.297467,
    "lng": 120.725994
  },
  {
    "name": "軍團門市",
    "address": "臺中市后里區馬場路292號1樓",
    "tel": "04-25583615",
    "lat": 24.298532,
    "lng": 120.727898
  },
  {
    "name": "后里棧門市",
    "address": "臺中市后里區馬場路300號B1樓",
    "tel": "04-25587516",
    "lat": 24.298535,
    "lng": 120.724909
  },
  {
    "name": "梨山門市",
    "address": "臺中市和平區中正路6號1樓",
    "tel": "04-25981890",
    "lat": 24.257487,
    "lng": 121.260084
  },
  {
    "name": "環山門市",
    "address": "臺中市和平區中興路三段64-5號.64-6號",
    "tel": "04-25802573",
    "lat": 24.3117,
    "lng": 121.291707
  },
  {
    "name": "欣谷關門市",
    "address": "臺中市和平區東關路一段135-2號1樓",
    "tel": "04-25950389",
    "lat": 24.202628,
    "lng": 121.004276
  },
  {
    "name": "和平門市",
    "address": "臺中市和平區東關路三段161之2號",
    "tel": "04-25943858",
    "lat": 24.174602,
    "lng": 120.883301
  },
  {
    "name": "新甲后門市",
    "address": "臺中市外埔區甲后路三段1025號",
    "tel": "04-26839447",
    "lat": 24.331607,
    "lng": 120.653262
  },
  {
    "name": "大甲東門市",
    "address": "臺中市外埔區甲后路五段15號1樓",
    "tel": "04-26802083",
    "lat": 24.341835,
    "lng": 120.63844
  },
  {
    "name": "金大安門市",
    "address": "臺中市大安區中山南路241號1樓",
    "tel": "04-26713224",
    "lat": 24.344315,
    "lng": 120.5882
  },
  {
    "name": "崧雅門市",
    "address": "臺中市大安區大安港路589號",
    "tel": "04-26800852",
    "lat": 24.361117,
    "lng": 120.603244
  },
  {
    "name": "大安綻門市",
    "address": "臺中市大安區海墘里11鄰東西六路二段189號",
    "tel": "04-26803877",
    "lat": 24.379028,
    "lng": 120.592068
  },
  {
    "name": "順大門市",
    "address": "臺中市大甲區中山路一段1085號",
    "tel": "04-26870347",
    "lat": 24.351092,
    "lng": 120.627444
  },
  {
    "name": "義和門市",
    "address": "臺中市大甲區中山路一段492號",
    "tel": "04-26882372",
    "lat": 24.33883,
    "lng": 120.618405
  },
  {
    "name": "甲渭門市",
    "address": "臺中市大甲區中山路二段905之12號",
    "tel": "04-26821511",
    "lat": 24.402752,
    "lng": 120.641048
  },
  {
    "name": "幼勝門市",
    "address": "臺中市大甲區中山路二段920之21號之22號之23號之25號之26號",
    "tel": "04-26822276",
    "lat": 24.401403,
    "lng": 120.642377
  },
  {
    "name": "新政門市",
    "address": "臺中市大甲區信義路193號",
    "tel": "04-26761738",
    "lat": 24.350474,
    "lng": 120.620515
  },
  {
    "name": "媽祖門市",
    "address": "臺中市大甲區光明路1號",
    "tel": "04-26867485",
    "lat": 24.343503,
    "lng": 120.625585
  },
  {
    "name": "大安港門市",
    "address": "臺中市大甲區大安港路118號",
    "tel": "04-26804055",
    "lat": 24.351603,
    "lng": 120.614338
  },
  {
    "name": "鎮瀾門市",
    "address": "臺中市大甲區大甲里鎮瀾街102號",
    "tel": "04-26804020",
    "lat": 24.344352,
    "lng": 120.623589
  },
  {
    "name": "日出門市",
    "address": "臺中市大甲區孟春里通天路168號",
    "tel": "04-26818410",
    "lat": 24.380998,
    "lng": 120.655007
  },
  {
    "name": "日南門市",
    "address": "臺中市大甲區日南里青年路130號",
    "tel": "04-26821781",
    "lat": 24.404337,
    "lng": 120.646056
  },
  {
    "name": "永在門市",
    "address": "臺中市大甲區日南里黎明路3之21號1樓",
    "tel": "04-26821479",
    "lat": 24.391746,
    "lng": 120.654505
  },
  {
    "name": "甲尚門市",
    "address": "臺中市大甲區武陵里興安路263號1樓",
    "tel": "04-26803855",
    "lat": 24.347138,
    "lng": 120.605435
  },
  {
    "name": "金甲后門市",
    "address": "臺中市大甲區甲后路五段360號",
    "tel": "04-26804065",
    "lat": 24.344878,
    "lng": 120.634297
  },
  {
    "name": "甲旺門市",
    "address": "臺中市大甲區經國路2076號",
    "tel": "04-26822267",
    "lat": 24.383334,
    "lng": 120.652134
  },
  {
    "name": "新美門市",
    "address": "臺中市大甲區經國路329號",
    "tel": "04-26864979",
    "lat": 24.346893,
    "lng": 120.616967
  },
  {
    "name": "鈺英門市",
    "address": "臺中市大甲區育英路283號",
    "tel": "04-26765542",
    "lat": 24.35418,
    "lng": 120.618872
  },
  {
    "name": "茂華門市",
    "address": "臺中市大甲區蔣公路170號1樓",
    "tel": "04-26805206",
    "lat": 24.346556,
    "lng": 120.621439
  },
  {
    "name": "大甲順天門市",
    "address": "臺中市大甲區順天路154號",
    "tel": "04-26801591",
    "lat": 24.345257,
    "lng": 120.622917
  },
  {
    "name": "中蔗門市",
    "address": "臺中市大肚區中蔗路39號",
    "tel": "04-26916897",
    "lat": 24.169882,
    "lng": 120.574631
  },
  {
    "name": "王田門市",
    "address": "臺中市大肚區沙田路一段386號",
    "tel": "04-26930490",
    "lat": 24.122619,
    "lng": 120.567165
  },
  {
    "name": "親旺門市",
    "address": "臺中市大肚區沙田路一段929號",
    "tel": "04-26934817",
    "lat": 24.132225,
    "lng": 120.553585
  },
  {
    "name": "臺紙門市",
    "address": "臺中市大肚區沙田路二段645號",
    "tel": "04-26983260",
    "lat": 24.151039,
    "lng": 120.545186
  },
  {
    "name": "大肚門市",
    "address": "臺中市大肚區沙田路二段740號",
    "tel": "04-26994658",
    "lat": 24.153234,
    "lng": 120.544946
  },
  {
    "name": "大肚王福門市",
    "address": "臺中市大肚區王福街752號",
    "tel": "04-26933272",
    "lat": 24.123908,
    "lng": 120.569182
  },
  {
    "name": "豐肚門市",
    "address": "臺中市大肚區社腳里沙田路一段916號",
    "tel": "04-26999770",
    "lat": 24.134335,
    "lng": 120.553862
  },
  {
    "name": "一勝門市",
    "address": "臺中市大肚區福山村沙田路一段432-1號",
    "tel": "04-26930674",
    "lat": 24.123284,
    "lng": 120.56518
  },
  {
    "name": "蔗園門市",
    "address": "臺中市大肚區遊園路一段143號",
    "tel": "04-26914816",
    "lat": 24.167228,
    "lng": 120.578075
  },
  {
    "name": "瑞井門市",
    "address": "臺中市大肚區遊園路一段90-1號",
    "tel": "04-26910962",
    "lat": 24.161463,
    "lng": 120.575363
  },
  {
    "name": "遊園門市",
    "address": "臺中市大肚區遊園路二段146號1樓",
    "tel": "04-26911486",
    "lat": 24.17192,
    "lng": 120.580371
  },
  {
    "name": "草湖門市",
    "address": "臺中市大里區中興路一段11-6、11-7號1樓及東南路1號1樓",
    "tel": "04-24927373",
    "lat": 24.080158,
    "lng": 120.698251
  },
  {
    "name": "大金門市",
    "address": "臺中市大里區中興路一段255號",
    "tel": "04-24964085",
    "lat": 24.090976,
    "lng": 120.692083
  },
  {
    "name": "中湖門市",
    "address": "臺中市大里區中興路一段292之11及292之12號",
    "tel": "04-24952746",
    "lat": 24.0881,
    "lng": 120.695978
  },
  {
    "name": "中城門市",
    "address": "臺中市大里區中興路一段328號",
    "tel": "04-24966827",
    "lat": 24.090751,
    "lng": 120.692949
  },
  {
    "name": "新里門市",
    "address": "臺中市大里區中興路二段480號",
    "tel": "04-24838467",
    "lat": 24.110716,
    "lng": 120.690123
  },
  {
    "name": "大明門市",
    "address": "臺中市大里區中興路二段833號835號及中興路二段祥興一巷2號",
    "tel": "04-24850579",
    "lat": 24.121071,
    "lng": 120.692984
  },
  {
    "name": "新仁華門市",
    "address": "臺中市大里區仁化路460.462號",
    "tel": "04-24914732",
    "lat": 24.087465,
    "lng": 120.688603
  },
  {
    "name": "仁化門市",
    "address": "臺中市大里區仁化路657號",
    "tel": "04-24964332",
    "lat": 24.096546,
    "lng": 120.696029
  },
  {
    "name": "大道門市",
    "address": "臺中市大里區仁化里至善路188號",
    "tel": "04-24962420",
    "lat": "-",
    "lng": "-"
  },
  {
    "name": "豐竹門市",
    "address": "臺中市大里區健民路97號",
    "tel": "04-24916125",
    "lat": 24.092048,
    "lng": 120.729637
  },
  {
    "name": "蘋果門市",
    "address": "臺中市大里區善化路155號",
    "tel": "04-24913426",
    "lat": 24.099003,
    "lng": 120.701995
  },
  {
    "name": "大衛門市",
    "address": "臺中市大里區國中路276號",
    "tel": "04-24070776",
    "lat": 24.095717,
    "lng": 120.680164
  },
  {
    "name": "國光門市",
    "address": "臺中市大里區國光路二段257號1樓",
    "tel": "04-24064271",
    "lat": 24.105672,
    "lng": 120.680672
  },
  {
    "name": "興城門市",
    "address": "臺中市大里區塗城路765號",
    "tel": "04-24936537",
    "lat": 24.089347,
    "lng": 120.699042
  },
  {
    "name": "大峰門市",
    "address": "臺中市大里區大峰路167號",
    "tel": "04-24954806",
    "lat": 24.078067,
    "lng": 120.688925
  },
  {
    "name": "東峰門市",
    "address": "臺中市大里區大峰路429號",
    "tel": "04-24967513",
    "lat": 24.085667,
    "lng": 120.687551
  },
  {
    "name": "新永大門市",
    "address": "臺中市大里區大明路340號1樓",
    "tel": "04-24823074",
    "lat": 24.115158,
    "lng": 120.680774
  },
  {
    "name": "永隆門市",
    "address": "臺中市大里區大明路457號",
    "tel": "04-24074438",
    "lat": 24.114809,
    "lng": 120.676407
  },
  {
    "name": "喬城門市",
    "address": "臺中市大里區大智路567號",
    "tel": "04-22809095",
    "lat": 24.123258,
    "lng": 120.690417
  },
  {
    "name": "東里門市",
    "address": "臺中市大里區大里路295號1樓",
    "tel": "04-24060269",
    "lat": 24.097225,
    "lng": 120.67841
  },
  {
    "name": "大里杙門市",
    "address": "臺中市大里區大里路510號",
    "tel": "04-24066409",
    "lat": 24.096792,
    "lng": 120.666199
  },
  {
    "name": "興生門市",
    "address": "臺中市大里區大里路97號1樓",
    "tel": "04-24831710",
    "lat": 24.103971,
    "lng": 120.686415
  },
  {
    "name": "修平門市",
    "address": "臺中市大里區工業二路100號",
    "tel": "04-24917541",
    "lat": 24.095666,
    "lng": 120.714566
  },
  {
    "name": "愛心門市",
    "address": "臺中市大里區愛心路43號",
    "tel": "04-24068721",
    "lat": 24.101364,
    "lng": 120.67988
  },
  {
    "name": "元百門市",
    "address": "臺中市大里區成功路512號516號",
    "tel": "04-24962475",
    "lat": 24.090495,
    "lng": 120.703385
  },
  {
    "name": "樹王門市",
    "address": "臺中市大里區文心南路1252號",
    "tel": "04-24077449",
    "lat": 24.105345,
    "lng": 120.667392
  },
  {
    "name": "新家門市",
    "address": "臺中市大里區新仁路一段71-2號.71-3號",
    "tel": "04-22778672",
    "lat": 24.111621,
    "lng": 120.707493
  },
  {
    "name": "內鑫門市",
    "address": "臺中市大里區東昇里新仁路二段92號",
    "tel": "04-24835542",
    "lat": 24.111637,
    "lng": 120.694568
  },
  {
    "name": "東富門市",
    "address": "臺中市大里區東榮路282號",
    "tel": "04-24823721",
    "lat": 24.110509,
    "lng": 120.686131
  },
  {
    "name": "玉豐門市",
    "address": "臺中市大里區東榮路483號",
    "tel": "04-24823982",
    "lat": 24.109261,
    "lng": 120.680434
  },
  {
    "name": "新榮門市",
    "address": "臺中市大里區東榮路552號",
    "tel": "04-24062770",
    "lat": 24.109535,
    "lng": 120.679107
  },
  {
    "name": "軟體門市",
    "address": "臺中市大里區東湖里中山路131號",
    "tel": "04-24966941",
    "lat": 24.082412,
    "lng": 120.69428
  },
  {
    "name": "益民門市",
    "address": "臺中市大里區東興里10鄰大明路238號",
    "tel": "04-24815624",
    "lat": "-",
    "lng": "-"
  },
  {
    "name": "瑞城門市",
    "address": "臺中市大里區瑞城一街1號",
    "tel": "04-24963006",
    "lat": 24.08582,
    "lng": 120.701908
  },
  {
    "name": "祥興門市",
    "address": "臺中市大里區祥興路551號",
    "tel": "04-22807828",
    "lat": 24.117771,
    "lng": 120.681415
  },
  {
    "name": "立新門市",
    "address": "臺中市大里區立仁路142號",
    "tel": "04-22798641",
    "lat": 24.107735,
    "lng": 120.703442
  },
  {
    "name": "新堤門市",
    "address": "臺中市大里區立德里甲堤南路71號",
    "tel": "04-22759206",
    "lat": 24.102585,
    "lng": 120.695272
  },
  {
    "name": "多田門市",
    "address": "臺中市大里區立新街350號，立新二街5號",
    "tel": "04-22760520",
    "lat": 24.104595,
    "lng": 120.699861
  },
  {
    "name": "美群門市",
    "address": "臺中市大里區美群路60號",
    "tel": "04-24950645",
    "lat": 24.085377,
    "lng": 120.708324
  },
  {
    "name": "巧聖門市",
    "address": "臺中市大里區西榮里益民路二段137號",
    "tel": "04-24821505",
    "lat": "-",
    "lng": "-"
  },
  {
    "name": "雙喜門市",
    "address": "臺中市大雅區中山北路167號",
    "tel": "04-25687934",
    "lat": 24.218361,
    "lng": 120.646936
  },
  {
    "name": "亞和門市",
    "address": "臺中市大雅區中山北路410號",
    "tel": "04-25602429",
    "lat": 24.222103,
    "lng": 120.645382
  },
  {
    "name": "廣裕門市",
    "address": "臺中市大雅區中山路145號",
    "tel": "04-25600961",
    "lat": 24.208969,
    "lng": 120.64408
  },
  {
    "name": "福廣門市",
    "address": "臺中市大雅區中山路1號3號5號1樓",
    "tel": "04-25674255",
    "lat": 24.204546,
    "lng": 120.644453
  },
  {
    "name": "亞旺門市",
    "address": "臺中市大雅區中清東路240號",
    "tel": "04-25603216",
    "lat": 24.225086,
    "lng": 120.646717
  },
  {
    "name": "百達門市",
    "address": "臺中市大雅區中清路三段721號",
    "tel": "04-25651768",
    "lat": 24.211635,
    "lng": 120.650009
  },
  {
    "name": "浤淶門市",
    "address": "臺中市大雅區中清路四段408號",
    "tel": "04-25607490",
    "lat": 24.232526,
    "lng": 120.63918
  },
  {
    "name": "豐碩門市",
    "address": "臺中市大雅區中清路四段46號",
    "tel": "04-25600634",
    "lat": 24.226973,
    "lng": 120.644784
  },
  {
    "name": "浤雅門市",
    "address": "臺中市大雅區中清路四段737號",
    "tel": "04-25604934",
    "lat": 24.23759,
    "lng": 120.63325
  },
  {
    "name": "大邁門市",
    "address": "臺中市大雅區大林路275號",
    "tel": "04-25606907",
    "lat": 24.244024,
    "lng": 120.649832
  },
  {
    "name": "雅潭門市",
    "address": "臺中市大雅區學府路209號",
    "tel": "04-25685151",
    "lat": 24.221748,
    "lng": 120.649826
  },
  {
    "name": "興府門市",
    "address": "臺中市大雅區學府路51號",
    "tel": "04-25677731",
    "lat": 24.216543,
    "lng": 120.650778
  },
  {
    "name": "雅神門市",
    "address": "臺中市大雅區昌平路四段286號",
    "tel": "04-25670120",
    "lat": 24.223633,
    "lng": 120.670098
  },
  {
    "name": "晞寶門市",
    "address": "臺中市大雅區昌平路四段556號",
    "tel": "04-25604775",
    "lat": 24.228655,
    "lng": 120.672085
  },
  {
    "name": "約恩雅門市",
    "address": "臺中市大雅區民生路一段100號",
    "tel": "04-25603914",
    "lat": 24.226341,
    "lng": 120.648134
  },
  {
    "name": "民生路門市",
    "address": "臺中市大雅區民生路三段159號",
    "tel": "04-25607324",
    "lat": 24.231833,
    "lng": 120.659961
  },
  {
    "name": "上楓門市",
    "address": "臺中市大雅區民生路三段523號",
    "tel": "04-25688574",
    "lat": 24.235755,
    "lng": 120.666906
  },
  {
    "name": "德勝路門市",
    "address": "臺中市大雅區民生路三段86號",
    "tel": "04-25607852",
    "lat": 24.230837,
    "lng": 120.658514
  },
  {
    "name": "藍鵲門市",
    "address": "臺中市大雅區永和路112-26號",
    "tel": "04-25608497",
    "lat": 24.215031,
    "lng": 120.63542
  },
  {
    "name": "通山門市",
    "address": "臺中市大雅區永和路11號18號",
    "tel": "04-25604991",
    "lat": 24.207059,
    "lng": 120.629583
  },
  {
    "name": "神林門市",
    "address": "臺中市大雅區神林南路144號",
    "tel": "04-25688503",
    "lat": 24.226078,
    "lng": 120.65643
  },
  {
    "name": "綠點門市",
    "address": "臺中市大雅區神林路一段300號302號",
    "tel": "04-25609479",
    "lat": 24.239823,
    "lng": 120.656878
  },
  {
    "name": "科邦門市",
    "address": "臺中市大雅區科雅一路8號5樓",
    "tel": "04-25607547",
    "lat": "-",
    "lng": "-"
  },
  {
    "name": "佳積門市",
    "address": "臺中市大雅區科雅六路1號",
    "tel": "04-25694520",
    "lat": 24.214257,
    "lng": 120.615776
  },
  {
    "name": "豐積門市",
    "address": "臺中市大雅區科雅西路5號B2樓",
    "tel": "04-25607825",
    "lat": 24.216063,
    "lng": 120.618493
  },
  {
    "name": "雅勝門市",
    "address": "臺中市大雅區雅潭路四段491號",
    "tel": "04-25692742",
    "lat": 24.220511,
    "lng": 120.656542
  },
  {
    "name": "雅興門市",
    "address": "臺中市大雅區雅潭路四段81號",
    "tel": "04-25686782",
    "lat": 24.216697,
    "lng": 120.665938
  },
  {
    "name": "環太門市",
    "address": "臺中市大雅區雅環路一段330號",
    "tel": "04-25674424",
    "lat": 24.223521,
    "lng": 120.653718
  },
  {
    "name": "環禹門市",
    "address": "臺中市大雅區雅環路二段126號",
    "tel": "04-25604273",
    "lat": 24.227094,
    "lng": 120.652471
  },
  {
    "name": "環雅門市",
    "address": "臺中市大雅區雅環路二段320號一樓",
    "tel": "04-25607351",
    "lat": 24.229346,
    "lng": 120.648048
  },
  {
    "name": "新勤益門市",
    "address": "臺中市太平區中山路一段217號",
    "tel": "04-23922680",
    "lat": 24.142738,
    "lng": 120.733182
  },
  {
    "name": "盛民興門市",
    "address": "臺中市太平區中山路二段366號、366-1號、368號1樓",
    "tel": "04-23926373",
    "lat": 24.150099,
    "lng": 120.727521
  },
  {
    "name": "旱溪東門市",
    "address": "臺中市太平區中山路四段235號",
    "tel": "04-23955934",
    "lat": 24.147841,
    "lng": 120.700778
  },
  {
    "name": "精美門市",
    "address": "臺中市太平區中平里精美路1號",
    "tel": "04-22701765",
    "lat": "-",
    "lng": "-"
  },
  {
    "name": "太平門市",
    "address": "臺中市太平區中政里中興路171.173號",
    "tel": "04-22770941",
    "lat": 24.125613,
    "lng": 120.713387
  },
  {
    "name": "大榮門市",
    "address": "臺中市太平區中興東路189號191號",
    "tel": "04-22703976",
    "lat": 24.131907,
    "lng": 120.722933
  },
  {
    "name": "紅億門市",
    "address": "臺中市太平區光興路572號576號",
    "tel": "04-22715793",
    "lat": 24.104187,
    "lng": 120.729114
  },
  {
    "name": "光隆門市",
    "address": "臺中市太平區光興路707號",
    "tel": "04-22770849",
    "lat": 24.109321,
    "lng": 120.729698
  },
  {
    "name": "勤科大門市",
    "address": "臺中市太平區坪林里中山路二段57號",
    "tel": "04-23938945",
    "lat": 24.146401,
    "lng": 120.733421
  },
  {
    "name": "鑫佳慶門市",
    "address": "臺中市太平區大源二街1號1F",
    "tel": "04-23919759",
    "lat": 24.144463,
    "lng": 120.725134
  },
  {
    "name": "新大億門市",
    "address": "臺中市太平區大興路151號151-1號",
    "tel": "04-23938208",
    "lat": 24.154973,
    "lng": 120.733442
  },
  {
    "name": "精中門市",
    "address": "臺中市太平區太平一街220號",
    "tel": "04-22798881",
    "lat": 24.115438,
    "lng": 120.719748
  },
  {
    "name": "平義門市",
    "address": "臺中市太平區太平路672.672-1號",
    "tel": "04-22752625",
    "lat": 24.12891,
    "lng": 120.707663
  },
  {
    "name": "宜昌門市",
    "address": "臺中市太平區宜昌路400號",
    "tel": "04-22735742",
    "lat": 24.144879,
    "lng": 120.713949
  },
  {
    "name": "功興門市",
    "address": "臺中市太平區建興路47號",
    "tel": "04-22769121",
    "lat": 24.130858,
    "lng": 120.723978
  },
  {
    "name": "太隆門市",
    "address": "臺中市太平區德隆里工業路148號150號",
    "tel": "04-22716192",
    "lat": 24.102786,
    "lng": 120.717704
  },
  {
    "name": "振福門市",
    "address": "臺中市太平區振福路361巷6號1樓",
    "tel": "04-23954989",
    "lat": 24.152805,
    "lng": 120.707922
  },
  {
    "name": "盈全門市",
    "address": "臺中市太平區新光里新福路218號",
    "tel": "04-23957073",
    "lat": 24.151889,
    "lng": 120.703477
  },
  {
    "name": "尚晉門市",
    "address": "臺中市太平區新平路三段1號1樓",
    "tel": "04-23911323",
    "lat": 24.148983,
    "lng": 120.71879
  },
  {
    "name": "溪洲門市",
    "address": "臺中市太平區新平路二段221號1樓",
    "tel": "04-22795623",
    "lat": 24.141086,
    "lng": 120.714678
  },
  {
    "name": "第一門市",
    "address": "臺中市太平區新福里中山路四段112、112-1.112-2號1樓",
    "tel": "04-23957421",
    "lat": 24.148088,
    "lng": 120.700698
  },
  {
    "name": "金興門市",
    "address": "臺中市太平區新興路312號1樓",
    "tel": "04-23957220",
    "lat": 24.159663,
    "lng": 120.705541
  },
  {
    "name": "鑫德門市",
    "address": "臺中市太平區新興路85-1號",
    "tel": "04-23954471",
    "lat": 24.158978,
    "lng": 120.710634
  },
  {
    "name": "一江橋門市",
    "address": "臺中市太平區東平路1號",
    "tel": "04-22770154",
    "lat": 24.133067,
    "lng": 120.735885
  },
  {
    "name": "樂樂門市",
    "address": "臺中市太平區東平路422、430號1樓",
    "tel": "04-22793029",
    "lat": 24.133659,
    "lng": 120.710337
  },
  {
    "name": "樂平門市",
    "address": "臺中市太平區東平路773號1樓",
    "tel": "04-22799075",
    "lat": 24.134005,
    "lng": 120.711277
  },
  {
    "name": "東村門市",
    "address": "臺中市太平區東村路200號",
    "tel": "04-23511075",
    "lat": 24.137616,
    "lng": 120.724196
  },
  {
    "name": "全利門市",
    "address": "臺中市太平區樹孝路338號",
    "tel": "04-23926723",
    "lat": 24.155028,
    "lng": 120.719275
  },
  {
    "name": "新樹孝門市",
    "address": "臺中市太平區樹孝路48號50號1樓",
    "tel": "04-23910886",
    "lat": 24.151171,
    "lng": 120.71682
  },
  {
    "name": "育鑫門市",
    "address": "臺中市太平區樹孝路490號",
    "tel": "04-23910301",
    "lat": 24.15773,
    "lng": 120.720415
  },
  {
    "name": "吉仕多門市",
    "address": "臺中市太平區樹德路255號",
    "tel": "04-23957784",
    "lat": 24.157473,
    "lng": 120.712412
  },
  {
    "name": "樹廣門市",
    "address": "臺中市太平區樹德路98-9號",
    "tel": "04-23955449",
    "lat": 24.153623,
    "lng": 120.711766
  },
  {
    "name": "新平門市",
    "address": "臺中市太平區永平路一段105號107號1樓",
    "tel": "04-22785952",
    "lat": 24.131506,
    "lng": 120.717223
  },
  {
    "name": "丰太門市",
    "address": "臺中市太平區永豐路351號1樓",
    "tel": "04-23510560",
    "lat": 24.111868,
    "lng": 120.703725
  },
  {
    "name": "維樂門市",
    "address": "臺中市太平區溪州西路98號",
    "tel": "04-22763978",
    "lat": "-",
    "lng": "-"
  },
  {
    "name": "豐年門市",
    "address": "臺中市太平區環太東路345號",
    "tel": "04-23934446",
    "lat": 24.153901,
    "lng": 120.726975
  },
  {
    "name": "園豐門市",
    "address": "臺中市太平區祥順路一段46號",
    "tel": "04-22786419",
    "lat": 24.136149,
    "lng": 120.715807
  },
  {
    "name": "立功門市",
    "address": "臺中市太平區育才路446.448.450號",
    "tel": "04-23935452",
    "lat": 24.157361,
    "lng": 120.71287
  },
  {
    "name": "育見門市",
    "address": "臺中市太平區育賢路321.323號",
    "tel": "04-23934176",
    "lat": 24.159116,
    "lng": 120.713534
  },
  {
    "name": "育智門市",
    "address": "臺中市太平區育賢路520號",
    "tel": "04-23958492",
    "lat": 24.158857,
    "lng": 120.713176
  },
  {
    "name": "光興門市",
    "address": "臺中市太平區興隆里12鄰光興路1632號",
    "tel": "04-22793598",
    "lat": 24.120255,
    "lng": 120.733919
  },
  {
    "name": "長德門市",
    "address": "臺中市太平區長億里永成北路125號",
    "tel": "04-22798640",
    "lat": "-",
    "lng": "-"
  },
  {
    "name": "鵬儀門市",
    "address": "臺中市太平區鵬儀路137.137-1.139.139-1號",
    "tel": "04-22752895",
    "lat": 24.13035,
    "lng": 120.730557
  },
  {
    "name": "社和門市",
    "address": "臺中市新社區中和街五段115號1樓",
    "tel": "04-25824929",
    "lat": 24.251995,
    "lng": 120.808484
  },
  {
    "name": "中興嶺門市",
    "address": "臺中市新社區中興嶺170之2號1樓",
    "tel": "04-25820985",
    "lat": 24.205674,
    "lng": 120.794608
  },
  {
    "name": "薰衣草門市",
    "address": "臺中市新社區協中街169之1號",
    "tel": "04-25825277",
    "lat": 24.192284,
    "lng": 120.808539
  },
  {
    "name": "永源村門市",
    "address": "臺中市新社區東山街88-29號30號",
    "tel": "04-25825448",
    "lat": 24.216961,
    "lng": 120.796099
  },
  {
    "name": "興中街門市",
    "address": "臺中市新社區興中街90-11號",
    "tel": "04-25826581",
    "lat": 24.226664,
    "lng": 120.803284
  },
  {
    "name": "新社門市",
    "address": "臺中市新社區興社街四段27之1號",
    "tel": "04-25819166",
    "lat": 24.241727,
    "lng": 120.808741
  },
  {
    "name": "欣東勢門市",
    "address": "臺中市東勢區上新里第一橫街153、155號1樓和三民街2號1樓",
    "tel": "04-25887812",
    "lat": 24.251573,
    "lng": 120.831225
  },
  {
    "name": "東展門市",
    "address": "臺中市東勢區南平里豐勢路336號",
    "tel": "04-25886569",
    "lat": 24.253594,
    "lng": 120.829736
  },
  {
    "name": "粵西門市",
    "address": "臺中市東勢區東坑路62號1樓",
    "tel": "04-25877305",
    "lat": 24.244624,
    "lng": 120.838005
  },
  {
    "name": "東蘭門市",
    "address": "臺中市東勢區東蘭路194號",
    "tel": "04-25770793",
    "lat": 24.286297,
    "lng": 120.795724
  },
  {
    "name": "東泰門市",
    "address": "臺中市東勢區東蘭路41-5號",
    "tel": "04-25774323",
    "lat": 24.264764,
    "lng": 120.826145
  },
  {
    "name": "東關門市",
    "address": "臺中市東勢區東關路七段191號、新盛街2號1樓",
    "tel": "04-25887433",
    "lat": 24.249314,
    "lng": 120.829226
  },
  {
    "name": "耘晨門市",
    "address": "臺中市東勢區東關路六段432號",
    "tel": "04-25852120",
    "lat": 24.22527,
    "lng": 120.837847
  },
  {
    "name": "欣東雲門市",
    "address": "臺中市東勢區第五橫街28號及三民街165號",
    "tel": "04-25871926",
    "lat": 24.257583,
    "lng": 120.829582
  },
  {
    "name": "新振興門市",
    "address": "臺中市東區十甲東路217號",
    "tel": "04-22153224",
    "lat": 24.130513,
    "lng": 120.704539
  },
  {
    "name": "漢溪門市",
    "address": "臺中市東區十甲東路575號1樓",
    "tel": "04-22139779",
    "lat": 24.140246,
    "lng": 120.707849
  },
  {
    "name": "世界門市",
    "address": "臺中市東區十甲路202號",
    "tel": "04-22134376",
    "lat": 24.144328,
    "lng": 120.702813
  },
  {
    "name": "富麗門市",
    "address": "臺中市東區十甲里十甲路397號",
    "tel": "04-22123172",
    "lat": 24.144646,
    "lng": 120.705921
  },
  {
    "name": "中農門市",
    "address": "臺中市東區臺中路195號197號199號",
    "tel": "04-22806276",
    "lat": 24.130234,
    "lng": 120.685345
  },
  {
    "name": "富仁門市",
    "address": "臺中市東區富榮街2號1樓",
    "tel": "04-22133717",
    "lat": 24.145489,
    "lng": 120.692079
  },
  {
    "name": "鑫建德門市",
    "address": "臺中市東區建德街174.176.178.180號",
    "tel": "04-22800902",
    "lat": "-",
    "lng": "-"
  },
  {
    "name": "建智門市",
    "address": "臺中市東區建成路668號",
    "tel": "04-22817953",
    "lat": 24.13194,
    "lng": 120.690355
  },
  {
    "name": "福人門市",
    "address": "臺中市東區復興路五段142號1樓",
    "tel": "04-22138629",
    "lat": 24.14451,
    "lng": 120.689432
  },
  {
    "name": "智復門市",
    "address": "臺中市東區復興路四段210號1.2樓.地下層",
    "tel": "04-22224776",
    "lat": 24.136444,
    "lng": 120.688107
  },
  {
    "name": "新立德門市",
    "address": "臺中市東區復興路四段4號臺中路45號",
    "tel": "04-22202225",
    "lat": 24.134381,
    "lng": 120.683299
  },
  {
    "name": "鑫東門市",
    "address": "臺中市東區振興路38、40號",
    "tel": "04-22244492",
    "lat": 24.129619,
    "lng": 120.705924
  },
  {
    "name": "新平智門市",
    "address": "臺中市東區新庄里大智路49號",
    "tel": "04-22297551",
    "lat": 24.135224,
    "lng": 120.688702
  },
  {
    "name": "光園門市",
    "address": "臺中市東區東光園路142號",
    "tel": "04-22800510",
    "lat": 24.127452,
    "lng": 120.694864
  },
  {
    "name": "樂東門市",
    "address": "臺中市東區東英路331號",
    "tel": "04-22139547",
    "lat": 24.13746,
    "lng": 120.70513
  },
  {
    "name": "東戰門市",
    "address": "臺中市東區東門路121.123號1樓",
    "tel": "04-22803634",
    "lat": 24.127448,
    "lng": 120.700115
  },
  {
    "name": "東泓門市",
    "address": "臺中市東區東門里東門路140號",
    "tel": "04-22809073",
    "lat": 24.127095,
    "lng": 120.69982
  },
  {
    "name": "樂業門市",
    "address": "臺中市東區樂業路259號",
    "tel": "04-22134683",
    "lat": 24.139189,
    "lng": 120.700014
  },
  {
    "name": "立和門市",
    "address": "臺中市東區立德街47、49、51、53號",
    "tel": "04-22244209",
    "lat": 24.129822,
    "lng": 120.688985
  },
  {
    "name": "富由門市",
    "address": "臺中市東區自由路三段169-1號",
    "tel": "04-22123831",
    "lat": 24.143001,
    "lng": 120.690912
  },
  {
    "name": "進德門市",
    "address": "臺中市東區自由路三段226號及進德路77號",
    "tel": "04-22138518",
    "lat": 24.142621,
    "lng": 120.692605
  },
  {
    "name": "東英門市",
    "address": "臺中市東區自由路四段339號",
    "tel": "04-22139200",
    "lat": 24.142921,
    "lng": 120.705744
  },
  {
    "name": "漢展門市",
    "address": "臺中市東區自由路四段436號",
    "tel": "04-22137848",
    "lat": 24.142555,
    "lng": 120.708819
  },
  {
    "name": "福明門市",
    "address": "臺中市東區進化路170號1樓",
    "tel": "04-22135826",
    "lat": 24.146431,
    "lng": 120.694682
  },
  {
    "name": "樂寶門市",
    "address": "臺中市東區進德路600號",
    "tel": "04-22152674",
    "lat": 24.135404,
    "lng": 120.692424
  },
  {
    "name": "港務門市",
    "address": "臺中市梧棲區中和里15鄰中橫一路12號",
    "tel": "04-26567615",
    "lat": 24.257608,
    "lng": 120.523691
  },
  {
    "name": "港中門市",
    "address": "臺中市梧棲區中央路一段666之28號",
    "tel": "04-26564037",
    "lat": 24.242802,
    "lng": 120.53735
  },
  {
    "name": "吉得堡門市",
    "address": "臺中市梧棲區中興路121號",
    "tel": "04-26567304",
    "lat": 24.253225,
    "lng": 120.534243
  },
  {
    "name": "梧棲大居門市",
    "address": "臺中市梧棲區中興路360號",
    "tel": "04-26584348",
    "lat": 24.257508,
    "lng": 120.534893
  },
  {
    "name": "大排門市",
    "address": "臺中市梧棲區中華路一段982號",
    "tel": "04-26627624",
    "lat": 24.239438,
    "lng": 120.55004
  },
  {
    "name": "鏵智門市",
    "address": "臺中市梧棲區中華路二段351號",
    "tel": "04-26624609",
    "lat": 24.251275,
    "lng": 120.555806
  },
  {
    "name": "智尊門市",
    "address": "臺中市梧棲區八德路1號",
    "tel": "04-26566125",
    "lat": 24.261061,
    "lng": 120.531538
  },
  {
    "name": "臺中港門市",
    "address": "臺中市梧棲區臺灣大道九段301號1樓",
    "tel": "04-26560576",
    "lat": 24.252293,
    "lng": 120.529103
  },
  {
    "name": "新童門市",
    "address": "臺中市梧棲區臺灣大道八段699號",
    "tel": "04-26570026",
    "lat": 24.247285,
    "lng": 120.542506
  },
  {
    "name": "梧棲門市",
    "address": "臺中市梧棲區臺灣大道八段960號、962號1樓",
    "tel": "04-26578003",
    "lat": 24.249437,
    "lng": 120.53886
  },
  {
    "name": "大維門市",
    "address": "臺中市梧棲區四維路73、75號",
    "tel": "04-26584759",
    "lat": 24.262142,
    "lng": 120.537148
  },
  {
    "name": "智鴻門市",
    "address": "臺中市梧棲區大勇路240號1樓",
    "tel": "04-26563048",
    "lat": 24.268836,
    "lng": 120.531811
  },
  {
    "name": "詠珊門市",
    "address": "臺中市梧棲區大智路一段1017號1樓",
    "tel": "04-26575417",
    "lat": 24.256962,
    "lng": 120.541172
  },
  {
    "name": "智光門市",
    "address": "臺中市梧棲區大智路一段525號1樓",
    "tel": "04-26568163",
    "lat": 24.252994,
    "lng": 120.550331
  },
  {
    "name": "詠德門市",
    "address": "臺中市梧棲區大智路二段385號",
    "tel": "04-26567101",
    "lat": 24.259808,
    "lng": 120.533016
  },
  {
    "name": "港區門市",
    "address": "臺中市梧棲區安仁里文化路二段2鄰55號1樓",
    "tel": "04-26580687",
    "lat": 24.253315,
    "lng": 120.529582
  },
  {
    "name": "梧棲宅門市",
    "address": "臺中市梧棲區文化路一段88-1號1樓",
    "tel": "04-26568213",
    "lat": 24.251304,
    "lng": 120.529415
  },
  {
    "name": "文雅門市",
    "address": "臺中市梧棲區文匯街66號",
    "tel": "04-26560624",
    "lat": "-",
    "lng": "-"
  },
  {
    "name": "港臻門市",
    "address": "臺中市梧棲區文昌路333號",
    "tel": "04-26563851",
    "lat": 24.24324,
    "lng": 120.543527
  },
  {
    "name": "弘新門市",
    "address": "臺中市梧棲區永興路一段112號",
    "tel": "04-26355306",
    "lat": 24.227388,
    "lng": 120.545844
  },
  {
    "name": "鴨姆寮門市",
    "address": "臺中市梧棲區永興路一段588巷28號1樓",
    "tel": "04-26398675",
    "lat": 24.22566,
    "lng": 120.536469
  },
  {
    "name": "港昌門市",
    "address": "臺中市梧棲區港埠路一段986號",
    "tel": "04-26582445",
    "lat": 24.24715,
    "lng": 120.535407
  },
  {
    "name": "港埠門市",
    "address": "臺中市梧棲區港埠路一段989號",
    "tel": "04-26562460",
    "lat": 24.246704,
    "lng": 120.534391
  },
  {
    "name": "關連門市",
    "address": "臺中市梧棲區臨港路三段70.72號",
    "tel": "04-26399899",
    "lat": 24.253384,
    "lng": 120.524969
  },
  {
    "name": "連強門市",
    "address": "臺中市梧棲區自強一街76號",
    "tel": "04-26395625",
    "lat": 24.239668,
    "lng": 120.529743
  },
  {
    "name": "三景門市",
    "address": "臺中市梧棲區臺灣大道十段168號(第1930號櫃位)",
    "tel": "04-26564041",
    "lat": 24.25709,
    "lng": 120.518158
  },
  {
    "name": "大聖門市",
    "address": "臺中市梧棲區草湳里臨港路三段351號",
    "tel": "04-26595625",
    "lat": 24.239322,
    "lng": 120.517869
  },
  {
    "name": "清春門市",
    "address": "臺中市梧棲區長春路10號",
    "tel": "04-26221653",
    "lat": 24.256077,
    "lng": 120.561733
  },
  {
    "name": "大仁門市",
    "address": "臺中市梧棲區頂寮里28鄰大仁路二段71號",
    "tel": "04-26584589",
    "lat": 24.260918,
    "lng": 120.540511
  },
  {
    "name": "沙鹿中山門市",
    "address": "臺中市沙鹿區中山路198號",
    "tel": "04-26629334",
    "lat": 24.237617,
    "lng": 120.563028
  },
  {
    "name": "丹聯門市",
    "address": "臺中市沙鹿區中山路田尾巷3號4號5號",
    "tel": "04-26653949",
    "lat": 24.250343,
    "lng": 120.565762
  },
  {
    "name": "清泉崗門市",
    "address": "臺中市沙鹿區中清路六段259號",
    "tel": "04-26152389",
    "lat": 24.246289,
    "lng": 120.608222
  },
  {
    "name": "鹿福門市",
    "address": "臺中市沙鹿區光大路99號",
    "tel": "04-26624876",
    "lat": 24.244589,
    "lng": 120.56474
  },
  {
    "name": "鹿心門市",
    "address": "臺中市沙鹿區光華路171號1樓、鎮南路二段535號1樓",
    "tel": "04-26367361",
    "lat": 24.24323,
    "lng": 120.570654
  },
  {
    "name": "鹿成門市",
    "address": "臺中市沙鹿區光華路394.396號1樓",
    "tel": "04-26628474",
    "lat": 24.242522,
    "lng": 120.571112
  },
  {
    "name": "祐瑄門市",
    "address": "臺中市沙鹿區光華路502號506號",
    "tel": "04-26629437",
    "lat": 24.243815,
    "lng": 120.570237
  },
  {
    "name": "鹿維門市",
    "address": "臺中市沙鹿區北勢東路330號",
    "tel": "04-26319135",
    "lat": 24.215212,
    "lng": 120.580017
  },
  {
    "name": "北勢東門市",
    "address": "臺中市沙鹿區北勢東路507之8號9號",
    "tel": "04-26318451",
    "lat": 24.224432,
    "lng": 120.576522
  },
  {
    "name": "頂尖門市",
    "address": "臺中市沙鹿區北勢東路617號619號",
    "tel": "04-26529629",
    "lat": 24.229053,
    "lng": 120.573612
  },
  {
    "name": "北忠門市",
    "address": "臺中市沙鹿區北勢東路806號",
    "tel": "04-26311091",
    "lat": 24.229845,
    "lng": 120.570058
  },
  {
    "name": "鎮欣門市",
    "address": "臺中市沙鹿區北勢里鎮南路二段368號",
    "tel": "04-26314831",
    "lat": 24.229191,
    "lng": 120.567049
  },
  {
    "name": "平麗門市",
    "address": "臺中市沙鹿區南斗路29-1號",
    "tel": "04-26364535",
    "lat": 24.216562,
    "lng": 120.5686
  },
  {
    "name": "鎮揚門市",
    "address": "臺中市沙鹿區南陽路439號",
    "tel": "04-26521648",
    "lat": 24.216208,
    "lng": 120.571044
  },
  {
    "name": "中棲門市",
    "address": "臺中市沙鹿區臺灣大道七段259號1樓",
    "tel": "04-26324033",
    "lat": 24.226803,
    "lng": 120.575762
  },
  {
    "name": "鹿鼎門市",
    "address": "臺中市沙鹿區臺灣大道七段812號1樓",
    "tel": "04-26628465",
    "lat": 24.238557,
    "lng": 120.568083
  },
  {
    "name": "保屏門市",
    "address": "臺中市沙鹿區向上路七段132號",
    "tel": "04-26368705",
    "lat": 24.206479,
    "lng": 120.564273
  },
  {
    "name": "鹿興門市",
    "address": "臺中市沙鹿區向上路七段1號",
    "tel": "04-26368423",
    "lat": 24.203482,
    "lng": 120.567003
  },
  {
    "name": "保雅門市",
    "address": "臺中市沙鹿區屏西路55號",
    "tel": "04-26366953",
    "lat": 24.206208,
    "lng": 120.567605
  },
  {
    "name": "平和門市",
    "address": "臺中市沙鹿區平等路100號",
    "tel": "04-26520559",
    "lat": 24.218584,
    "lng": 120.575579
  },
  {
    "name": "童醫門市",
    "address": "臺中市沙鹿區成功東街1號",
    "tel": "04-26626315",
    "lat": 24.242715,
    "lng": 120.561533
  },
  {
    "name": "天仁門市",
    "address": "臺中市沙鹿區斗抵里沙田路17之19號",
    "tel": "04-26361763",
    "lat": 24.22255,
    "lng": 120.556482
  },
  {
    "name": "文銧門市",
    "address": "臺中市沙鹿區斗潭路230號1樓",
    "tel": "04-26361943",
    "lat": 24.225777,
    "lng": 120.554676
  },
  {
    "name": "靜大門市",
    "address": "臺中市沙鹿區晉文路45.47號1樓",
    "tel": "04-26529793",
    "lat": 24.21964,
    "lng": 120.580744
  },
  {
    "name": "弘大門市",
    "address": "臺中市沙鹿區晉武路9號",
    "tel": "04-26315409",
    "lat": 24.222058,
    "lng": 120.580316
  },
  {
    "name": "弘光門市",
    "address": "臺中市沙鹿區晉江里臺灣大道六段1018號B2樓",
    "tel": "04-26529515",
    "lat": 24.216826,
    "lng": 120.58165
  },
  {
    "name": "新忠貞門市",
    "address": "臺中市沙鹿區東大路二段1587號",
    "tel": "04-26154547",
    "lat": 24.242114,
    "lng": 120.614594
  },
  {
    "name": "大晉門市",
    "address": "臺中市沙鹿區東晉路133號",
    "tel": "04-26314750",
    "lat": 24.222135,
    "lng": 120.572794
  },
  {
    "name": "沙鹿光田門市",
    "address": "臺中市沙鹿區沙田路115號",
    "tel": "04-26626074",
    "lat": 24.235234,
    "lng": 120.558806
  },
  {
    "name": "斗抵門市",
    "address": "臺中市沙鹿區沙田路43-12號",
    "tel": "04-26359855",
    "lat": 24.229575,
    "lng": 120.558429
  },
  {
    "name": "興安門市",
    "address": "臺中市沙鹿區興安路25-1號1樓",
    "tel": "04-26364739",
    "lat": 24.233198,
    "lng": 120.558263
  },
  {
    "name": "鎮權門市",
    "address": "臺中市沙鹿區鎮南路二段107號109號",
    "tel": "04-26363948",
    "lat": 24.219823,
    "lng": 120.569446
  },
  {
    "name": "靜宜門市",
    "address": "臺中市沙鹿區鎮南路二段293號",
    "tel": "04-26350632",
    "lat": 24.224758,
    "lng": 120.568431
  },
  {
    "name": "星河門市",
    "address": "臺中市沙鹿區鹿峰里中山路646號",
    "tel": "04-26227926",
    "lat": 24.255665,
    "lng": 120.569219
  },
  {
    "name": "菁埔門市",
    "address": "臺中市清水區中央北路1號",
    "tel": "04-26221350",
    "lat": 24.296645,
    "lng": 120.590188
  },
  {
    "name": "清康門市",
    "address": "臺中市清水區中山路106號",
    "tel": "04-26226465",
    "lat": 24.26734,
    "lng": 120.574943
  },
  {
    "name": "英荃門市",
    "address": "臺中市清水區中山路39.41.43號",
    "tel": "04-26229642",
    "lat": 24.31163,
    "lng": 120.603084
  },
  {
    "name": "清水巧鄰門市",
    "address": "臺中市清水區中清路九段1178號",
    "tel": "04-26584173",
    "lat": 24.279907,
    "lng": 120.541302
  },
  {
    "name": "港藝門市",
    "address": "臺中市清水區中社路19號",
    "tel": "04-26281895",
    "lat": 24.272379,
    "lng": 120.558017
  },
  {
    "name": "清峰門市",
    "address": "臺中市清水區中華路330號、鰲峰路173-3號",
    "tel": "04-26226842",
    "lat": 24.268177,
    "lng": 120.566899
  },
  {
    "name": "海濱門市",
    "address": "臺中市清水區中華路429號",
    "tel": "04-26281097",
    "lat": 24.273156,
    "lng": 120.568693
  },
  {
    "name": "欣浩門市",
    "address": "臺中市清水區五權路121號",
    "tel": "04-26281007",
    "lat": 24.276726,
    "lng": 120.566503
  },
  {
    "name": "新清水門市",
    "address": "臺中市清水區五權路16號1樓、民有路1號1樓",
    "tel": "04-26268398",
    "lat": 24.276164,
    "lng": 120.570669
  },
  {
    "name": "大秀門市",
    "address": "臺中市清水區五權路328號",
    "tel": "04-26281748",
    "lat": 24.277756,
    "lng": 120.560588
  },
  {
    "name": "梧汊港門市",
    "address": "臺中市清水區北堤路30號",
    "tel": "04-26560487",
    "lat": 24.293067,
    "lng": 120.521047
  },
  {
    "name": "清中門市",
    "address": "臺中市清水區北寧里董公街56號",
    "tel": "04-26233237",
    "lat": 24.272976,
    "lng": 120.577175
  },
  {
    "name": "清水綻二門市",
    "address": "臺中市清水區吳厝里吳厝二街89號(大客車區)",
    "tel": "04-26200841",
    "lat": 24.282202,
    "lng": 120.601574
  },
  {
    "name": "清水綻一門市",
    "address": "臺中市清水區吳厝里吳厝二街89號(小客車區)",
    "tel": "04-26200845",
    "lat": 24.282202,
    "lng": 120.601574
  },
  {
    "name": "飛翔門市",
    "address": "臺中市清水區和睦路三段238號",
    "tel": "04-26203446",
    "lat": 24.270592,
    "lng": 120.608059
  },
  {
    "name": "勇維門市",
    "address": "臺中市清水區大勇路36號",
    "tel": "04-26581045",
    "lat": 24.265518,
    "lng": 120.541319
  },
  {
    "name": "昌興門市",
    "address": "臺中市清水區新興路238號文昌街12-1號",
    "tel": "04-26222843",
    "lat": 24.269839,
    "lng": 120.57735
  },
  {
    "name": "億承門市",
    "address": "臺中市清水區民和路二段195號",
    "tel": "04-26566134",
    "lat": 24.260467,
    "lng": 120.553815
  },
  {
    "name": "聯悅門市",
    "address": "臺中市清水區民族路三段131.131-1號",
    "tel": "04-26566638",
    "lat": 24.269855,
    "lng": 120.538222
  },
  {
    "name": "巧竹門市",
    "address": "臺中市清水區海濱里臨港路五段828、830號1樓",
    "tel": "04-26569583",
    "lat": 24.289107,
    "lng": 120.540538
  },
  {
    "name": "清水又菁門市",
    "address": "臺中市清水區港新五路266號",
    "tel": "04-26564807",
    "lat": 24.269701,
    "lng": 120.537746
  },
  {
    "name": "高美祿門市",
    "address": "臺中市清水區高美路190號1樓",
    "tel": "04-26275803",
    "lat": 24.282433,
    "lng": 120.575042
  },
  {
    "name": "鰲峰門市",
    "address": "臺中市清水區鰲峰路22號",
    "tel": "04-26221728",
    "lat": 24.269359,
    "lng": 120.57437
  },
  {
    "name": "峰政門市",
    "address": "臺中市清水區鰲峰路360號1樓",
    "tel": "04-26262463",
    "lat": 24.266953,
    "lng": 120.559008
  },
  {
    "name": "一路發門市",
    "address": "臺中市清水區鰲峰路580號之15號1樓",
    "tel": "04-26577023",
    "lat": 24.264343,
    "lng": 120.548267
  },
  {
    "name": "佳茂門市",
    "address": "臺中市潭子區中山路一段17號1樓",
    "tel": "04-25346907",
    "lat": 24.189598,
    "lng": 120.702291
  },
  {
    "name": "泉富門市",
    "address": "臺中市潭子區中山路一段57號1樓",
    "tel": "04-25343869",
    "lat": 24.192171,
    "lng": 120.702322
  },
  {
    "name": "潭富門市",
    "address": "臺中市潭子區中山路二段585之1號",
    "tel": "04-25346731",
    "lat": 24.218471,
    "lng": 120.705707
  },
  {
    "name": "潭旺門市",
    "address": "臺中市潭子區人和路39號",
    "tel": "04-25363465",
    "lat": 24.21684,
    "lng": 120.707436
  },
  {
    "name": "潭勝門市",
    "address": "臺中市潭子區勝利路101號103號",
    "tel": "04-25344613",
    "lat": 24.208929,
    "lng": 120.7011
  },
  {
    "name": "潭子勝利門市",
    "address": "臺中市潭子區勝利路185號",
    "tel": "04-25343275",
    "lat": 24.211129,
    "lng": 120.700576
  },
  {
    "name": "潭陽門市",
    "address": "臺中市潭子區圓通南路2號1樓",
    "tel": "04-25361043",
    "lat": 24.206588,
    "lng": 120.709886
  },
  {
    "name": "郡寶門市",
    "address": "臺中市潭子區大富路一段7號1、2樓",
    "tel": "04-25343909",
    "lat": 24.204682,
    "lng": 120.678901
  },
  {
    "name": "大鋒門市",
    "address": "臺中市潭子區大豐一路439號1樓",
    "tel": "04-25349870",
    "lat": 24.20753,
    "lng": 120.681246
  },
  {
    "name": "潭慶門市",
    "address": "臺中市潭子區大豐路三段123號",
    "tel": "04-25352600",
    "lat": 24.222435,
    "lng": 120.692063
  },
  {
    "name": "矽品門市",
    "address": "臺中市潭子區大豐路三段188號190號",
    "tel": "04-25353262",
    "lat": 24.223932,
    "lng": 120.69239
  },
  {
    "name": "頭張門市",
    "address": "臺中市潭子區家福里頭張路一段31號",
    "tel": "04-25351934",
    "lat": 24.194296,
    "lng": 120.701091
  },
  {
    "name": "潭德門市",
    "address": "臺中市潭子區崇德路五段489號",
    "tel": "04-25343039",
    "lat": 24.225166,
    "lng": 120.689938
  },
  {
    "name": "潭豐門市",
    "address": "臺中市潭子區崇德路四段250之1號",
    "tel": "04-25355870",
    "lat": 24.21056,
    "lng": 120.687073
  },
  {
    "name": "大運通門市",
    "address": "臺中市潭子區復興路一段16號18號",
    "tel": "04-25390930",
    "lat": 24.202446,
    "lng": 120.70626
  },
  {
    "name": "東寶門市",
    "address": "臺中市潭子區昌平路三段152號",
    "tel": "04-25344621",
    "lat": 24.203904,
    "lng": 120.674387
  },
  {
    "name": "潭春門市",
    "address": "臺中市潭子區東寶里大豐路二段1號1樓",
    "tel": "04-25342320",
    "lat": 24.21618,
    "lng": 120.691129
  },
  {
    "name": "潭榮門市",
    "address": "臺中市潭子區榮興街19號1樓21巷1號21巷3號1樓",
    "tel": "04-25351431",
    "lat": 24.189385,
    "lng": 120.701609
  },
  {
    "name": "潭寶門市",
    "address": "臺中市潭子區潭興路三段51號",
    "tel": "04-25357382",
    "lat": 24.21148,
    "lng": 120.703314
  },
  {
    "name": "太舜門市",
    "address": "臺中市潭子區潭興路二段350號1樓",
    "tel": "04-25364841",
    "lat": 24.210588,
    "lng": 120.710031
  },
  {
    "name": "圓通南門市",
    "address": "臺中市潭子區潭陽里圓通南路239號",
    "tel": "04-25345324",
    "lat": 24.207086,
    "lng": 120.703349
  },
  {
    "name": "潭厝門市",
    "address": "臺中市潭子區環中東路一段5號",
    "tel": "04-25341014",
    "lat": 24.201257,
    "lng": 120.703874
  },
  {
    "name": "栗林門市",
    "address": "臺中市潭子區祥和路169號171號",
    "tel": "04-25387300",
    "lat": 24.229621,
    "lng": 120.711186
  },
  {
    "name": "潭欣門市",
    "address": "臺中市潭子區福潭路622號1樓",
    "tel": "04-25394615",
    "lat": 24.213204,
    "lng": 120.710938
  },
  {
    "name": "潭北門市",
    "address": "臺中市潭子區福潭路645.647.649號",
    "tel": "04-25360956",
    "lat": 24.215447,
    "lng": 120.706397
  },
  {
    "name": "甜園門市",
    "address": "臺中市潭子區豐栗路9號",
    "tel": "04-25327349",
    "lat": 24.23115,
    "lng": 120.708147
  },
  {
    "name": "潭興門市",
    "address": "臺中市潭子區豐興路一段591、593、595號1樓",
    "tel": "04-25392368",
    "lat": 24.204014,
    "lng": 120.722397
  },
  {
    "name": "潭濟門市",
    "address": "臺中市潭子區豐興路一段88號B1樓",
    "tel": "04-25394279",
    "lat": 24.195685,
    "lng": 120.721945
  },
  {
    "name": "潭秀門市",
    "address": "臺中市潭子區雅潭路一段60號62號64號1樓",
    "tel": "04-25347928",
    "lat": 24.216007,
    "lng": 120.70346
  },
  {
    "name": "富雅門市",
    "address": "臺中市潭子區雅豐街220號",
    "tel": "04-25348771",
    "lat": 24.221034,
    "lng": 120.694505
  },
  {
    "name": "榮晉門市",
    "address": "臺中市潭子區頭張路二段2號",
    "tel": "04-25359250",
    "lat": 24.194745,
    "lng": 120.697781
  },
  {
    "name": "中高站門市",
    "address": "臺中市烏日區三和里站區二路8號",
    "tel": "04-36006618",
    "lat": 24.111597,
    "lng": 120.615785
  },
  {
    "name": "園臻門市",
    "address": "臺中市烏日區三榮路一段111號",
    "tel": "04-23370548",
    "lat": 24.105723,
    "lng": 120.609385
  },
  {
    "name": "三和門市",
    "address": "臺中市烏日區三榮路一段558號",
    "tel": "04-23363462",
    "lat": 24.107267,
    "lng": 120.602327
  },
  {
    "name": "榮田門市",
    "address": "臺中市烏日區三榮路二段199號",
    "tel": "04-23362440",
    "lat": 24.108302,
    "lng": 120.597048
  },
  {
    "name": "明道一門市",
    "address": "臺中市烏日區中山路一段497號(蠡海大樓)",
    "tel": "04-23362043",
    "lat": 24.106693,
    "lng": 120.635739
  },
  {
    "name": "明道二門市",
    "address": "臺中市烏日區中山路一段497號地下室1樓",
    "tel": "04-23372406",
    "lat": 24.106693,
    "lng": 120.635739
  },
  {
    "name": "中展館門市",
    "address": "臺中市烏日區中山路三段1-1號",
    "tel": "04-23369243",
    "lat": 24.106594,
    "lng": 120.612951
  },
  {
    "name": "榮泉門市",
    "address": "臺中市烏日區中山路三段1007號",
    "tel": "04-23371990",
    "lat": 24.11278,
    "lng": 120.593011
  },
  {
    "name": "僑隆興門市",
    "address": "臺中市烏日區中山路三段180號",
    "tel": "04-23387367",
    "lat": 24.108305,
    "lng": 120.608546
  },
  {
    "name": "鼎好門市",
    "address": "臺中市烏日區中山路二段289號",
    "tel": "04-23380421",
    "lat": 24.106196,
    "lng": 120.623317
  },
  {
    "name": "九德門市",
    "address": "臺中市烏日區九德村中華路43.45.47號1樓",
    "tel": "04-23363783",
    "lat": 24.106798,
    "lng": 120.634249
  },
  {
    "name": "吉宏門市",
    "address": "臺中市烏日區九德里20鄰中華路593號",
    "tel": "04-23387989",
    "lat": 24.107247,
    "lng": 120.634202
  },
  {
    "name": "新光德門市",
    "address": "臺中市烏日區信義街162號1樓",
    "tel": "04-23370951",
    "lat": 24.1052,
    "lng": 120.639746
  },
  {
    "name": "米魯門市",
    "address": "臺中市烏日區光華街1號",
    "tel": "04-23372938",
    "lat": "-",
    "lng": "-"
  },
  {
    "name": "湖日門市",
    "address": "臺中市烏日區公園路269號",
    "tel": "04-23372441",
    "lat": 24.102038,
    "lng": 120.625279
  },
  {
    "name": "太明門市",
    "address": "臺中市烏日區太明路136號",
    "tel": "04-23356899",
    "lat": 24.057599,
    "lng": 120.656908
  },
  {
    "name": "建日門市",
    "address": "臺中市烏日區建國路419號",
    "tel": "04-23372748",
    "lat": 24.109241,
    "lng": 120.629279
  },
  {
    "name": "烏日門市",
    "address": "臺中市烏日區新興路247號",
    "tel": "04-23362682",
    "lat": 24.104044,
    "lng": 120.62425
  },
  {
    "name": "成功嶺門市",
    "address": "臺中市烏日區榮和路230號",
    "tel": "04-23373417",
    "lat": 24.110966,
    "lng": 120.598426
  },
  {
    "name": "天藍門市",
    "address": "臺中市烏日區溪南路一段126巷255號及257號",
    "tel": "04-23356129",
    "lat": 24.085092,
    "lng": 120.638195
  },
  {
    "name": "元宏門市",
    "address": "臺中市烏日區溪南路一段722號",
    "tel": "04-23357738",
    "lat": 24.074997,
    "lng": 120.642664
  },
  {
    "name": "喀哩門市",
    "address": "臺中市烏日區溪南路二段380號1樓",
    "tel": "04-23355202",
    "lat": 24.061102,
    "lng": 120.643376
  },
  {
    "name": "東園門市",
    "address": "臺中市烏日區溪埧里溪南路一段413號",
    "tel": "04-23352449",
    "lat": 24.078313,
    "lng": 120.643444
  },
  {
    "name": "站前門市",
    "address": "臺中市烏日區站區二路181號、183號",
    "tel": "04-23384012",
    "lat": 24.114215,
    "lng": 120.61544
  },
  {
    "name": "中高鐵門市",
    "address": "臺中市烏日區站區二路8號2樓",
    "tel": "04-36007820",
    "lat": 24.111597,
    "lng": 120.615785
  },
  {
    "name": "興祥門市",
    "address": "臺中市烏日區興祥街189號",
    "tel": "04-23384983",
    "lat": 24.109883,
    "lng": 120.637021
  },
  {
    "name": "夢幻誠門市",
    "address": "臺中市烏日區高鐵路二段118號",
    "tel": "04-23373935",
    "lat": 24.112655,
    "lng": 120.60978
  },
  {
    "name": "新石岡門市",
    "address": "臺中市石岡區明德路118號",
    "tel": "04-25724608",
    "lat": 24.274488,
    "lng": 120.777002
  },
  {
    "name": "花樂門市",
    "address": "臺中市石岡區豐勢路1111號1樓",
    "tel": "04-25724196",
    "lat": 24.276395,
    "lng": 120.77679
  },
  {
    "name": "豐梅門市",
    "address": "臺中市石岡區豐勢路460號1樓",
    "tel": "04-25826717",
    "lat": 24.268618,
    "lng": 120.801973
  },
  {
    "name": "禾康門市",
    "address": "臺中市神岡區三民路630號1樓",
    "tel": "04-25633243",
    "lat": 24.27289,
    "lng": 120.659662
  },
  {
    "name": "三社門市",
    "address": "臺中市神岡區三社路256號",
    "tel": "04-25631542",
    "lat": 24.240302,
    "lng": 120.688111
  },
  {
    "name": "倍沅門市",
    "address": "臺中市神岡區中山路473號",
    "tel": "04-25633834",
    "lat": 24.246459,
    "lng": 120.686795
  },
  {
    "name": "神采門市",
    "address": "臺中市神岡區中山路773號",
    "tel": "04-25634762",
    "lat": 24.249666,
    "lng": 120.678186
  },
  {
    "name": "神寶門市",
    "address": "臺中市神岡區中正路100號",
    "tel": "04-25613400",
    "lat": 24.258552,
    "lng": 120.656144
  },
  {
    "name": "豐洲門市",
    "address": "臺中市神岡區五權路63號",
    "tel": "04-25247925",
    "lat": 24.257935,
    "lng": 120.711934
  },
  {
    "name": "新北庄門市",
    "address": "臺中市神岡區北庄里中山路1320-3號",
    "tel": "04-25632407",
    "lat": 24.258216,
    "lng": 120.664877
  },
  {
    "name": "神圳門市",
    "address": "臺中市神岡區厚生路66-1號",
    "tel": "04-25631953",
    "lat": 24.26142,
    "lng": 120.674171
  },
  {
    "name": "新禾門市",
    "address": "臺中市神岡區和睦路一段363號",
    "tel": "04-25632930",
    "lat": 24.278351,
    "lng": 120.657238
  },
  {
    "name": "神洲門市",
    "address": "臺中市神岡區國豐路一段88號1樓",
    "tel": "04-25284035",
    "lat": 24.273387,
    "lng": 120.702181
  },
  {
    "name": "神尚門市",
    "address": "臺中市神岡區大圳路41-105號",
    "tel": "04-25634314",
    "lat": 24.259322,
    "lng": 120.682191
  },
  {
    "name": "大洲門市",
    "address": "臺中市神岡區大洲路299之1號",
    "tel": "04-25298470",
    "lat": 24.253791,
    "lng": 120.696704
  },
  {
    "name": "栗豐門市",
    "address": "臺中市神岡區承德路219號",
    "tel": "04-25356135",
    "lat": 24.2355,
    "lng": 120.69869
  },
  {
    "name": "承軒門市",
    "address": "臺中市神岡區民生路48之7號8號9號",
    "tel": "04-25629203",
    "lat": 24.244858,
    "lng": 120.68024
  },
  {
    "name": "社口門市",
    "address": "臺中市神岡區社口里8鄰中山路736號",
    "tel": "04-25618246",
    "lat": 24.248218,
    "lng": 120.680425
  },
  {
    "name": "禾立門市",
    "address": "臺中市神岡區神岡路53號1樓",
    "tel": "04-25634815",
    "lat": 24.257472,
    "lng": 120.661033
  },
  {
    "name": "鑫和睦門市",
    "address": "臺中市神岡區神清路260號262號264號266號268號及福成路56-1號",
    "tel": "04-25625741",
    "lat": 24.270716,
    "lng": 120.657445
  },
  {
    "name": "神全門市",
    "address": "臺中市神岡區豐洲路1556號",
    "tel": "04-25634286",
    "lat": 24.267088,
    "lng": 120.680612
  },
  {
    "name": "奇晉門市",
    "address": "臺中市神岡區豐洲路469號1樓",
    "tel": "04-25202546",
    "lat": 24.261533,
    "lng": 120.704475
  },